{
  "تهران": {
    "id": 7,
    "name": "تهران",
    "lat": "۳۵.۶۸۹۲۰۰۰۰",
    "long": "۵۱.۳۸۹۰۰۰۰۰",
    "parent_id": 212,
    "ostan": "استان-تهران",
    "areas": {
      "15خرداد": {
        "name": "15 خرداد",
        "id": 1837,
        "lat": 35.67717406,
        "long": 51.42371261
      },
      "آبشار": {
        "name": "آبشار",
        "id": 990,
        "lat": 35.67937386,
        "long": 51.44225832
      },
      "آپادانا": {
        "name": "آپادانا",
        "id": 1949,
        "lat": 35.70728275,
        "long": 51.3280632
      },
      "آپاداناخرمشهر": {
        "name": "آپادانا - خرمشهر",
        "id": 991,
        "lat": 35.735835,
        "long": 51.4357037
      },
      "آجودانیه": {
        "name": "آجودانیه",
        "id": 992,
        "lat": 35.80686996,
        "long": 51.48586467
      },
      "آذربایجان": {
        "name": "آذربایجان",
        "id": 993,
        "lat": 35.69272811,
        "long": 51.39828877
      },
      "آذری": {
        "name": "آذری",
        "id": 994,
        "lat": 35.66717663,
        "long": 51.35166136
      },
      "آرارات": {
        "name": "آرارات",
        "id": 995,
        "lat": 35.77501496,
        "long": 51.39969735
      },
      "آرژانتین": {
        "name": "آرژانتین",
        "id": 996,
        "lat": 35.70350468,
        "long": 51.41415441
      },
      "آزادشهر": {
        "name": "آزاد شهر",
        "id": 997,
        "lat": 35.73507765,
        "long": 51.19027012
      },
      "آسمان": {
        "name": "آسمان",
        "id": 998,
        "lat": 35.77467586,
        "long": 51.34032359
      },
      "آشتیانی": {
        "name": "آشتیانی",
        "id": 999,
        "lat": 35.71704808,
        "long": 51.50475376
      },
      "آفریقا": {
        "name": "آفریقا",
        "id": 1870,
        "lat": 35.76248569,
        "long": 51.41852267
      },
      "آگاهی": {
        "name": "آگاهی",
        "id": 1000,
        "lat": 35.74115674,
        "long": 51.44980748
      },
      "آلستوم": {
        "name": "آلستوم",
        "id": 1901,
        "lat": 35.75620352,
        "long": 51.27687233
      },
      "آهنگ": {
        "name": "آهنگ",
        "id": 1001,
        "lat": 35.66531529,
        "long": 51.46378034
      },
      "ائمهاطهار": {
        "name": "ائمه اطهار",
        "id": 989,
        "lat": 35.68043395,
        "long": 51.48618434
      },
      "اباذر": {
        "name": "اباذر",
        "id": 948,
        "lat": 35.73114967,
        "long": 51.32984154
      },
      "ابراهیم‌آباد": {
        "name": "ابراهیم‌ آباد",
        "id": 949,
        "lat": 35.36632307,
        "long": 51.28375051
      },
      "ابنبابویه": {
        "name": "ابن بابویه",
        "id": 950,
        "lat": 35.60315148,
        "long": 51.44108898
      },
      "ابنسینا": {
        "name": "ابن سینا",
        "id": 1819,
        "lat": 35.73185349,
        "long": 51.41070954
      },
      "ابوذرمنطقه14": {
        "name": "ابوذر - منطقه 14",
        "id": 951,
        "lat": 35.6532478,
        "long": 51.48354641
      },
      "ابوسعید": {
        "name": "ابو سعید",
        "id": 1962,
        "lat": 35.66197075,
        "long": 51.25935637
      },
      "اتابک": {
        "name": "اتابک",
        "id": 953,
        "lat": 35.64995172,
        "long": 51.46133412
      },
      "اتحاد": {
        "name": "اتحاد",
        "id": 954,
        "lat": 35.72599814,
        "long": 51.41198672
      },
      "اجارهدار": {
        "name": "اجاره دار",
        "id": 955,
        "lat": 35.71428074,
        "long": 51.44811837
      },
      "احمدآبادمستوفی": {
        "name": "احمدآباد مستوفی",
        "id": 956,
        "lat": 35.60954129,
        "long": 51.24581877
      },
      "اختیاریه": {
        "name": "اختیاریه",
        "id": 957,
        "lat": 35.78793182,
        "long": 51.45970346
      },
      "اراج": {
        "name": "اراج",
        "id": 958,
        "lat": 35.79288296,
        "long": 51.48744977
      },
      "ارامنه": {
        "name": "ارامنه",
        "id": 959,
        "lat": 35.61331968,
        "long": 51.43297505
      },
      "اردیبهشت": {
        "name": "اردیبهشت",
        "id": 1943,
        "lat": 35.74848276,
        "long": 51.52397945
      },
      "ارم": {
        "name": "ارم",
        "id": 960,
        "lat": 35.7255411,
        "long": 51.29306643
      },
      "ازگل": {
        "name": "ازگل",
        "id": 961,
        "lat": 35.7900886,
        "long": 51.51225308
      },
      "استادمعین": {
        "name": "استاد معین",
        "id": 962,
        "lat": 35.69322515,
        "long": 51.34598195
      },
      "استخر": {
        "name": "استخر",
        "id": 964,
        "lat": 35.75629895,
        "long": 51.55990251
      },
      "اسفندیاری": {
        "name": "اسفندیاری",
        "id": 965,
        "lat": 35.62836593,
        "long": 51.38478386
      },
      "اسکندری": {
        "name": "اسکندری",
        "id": 966,
        "lat": 35.68571843,
        "long": 51.38133997
      },
      "اسکندریجنوبی": {
        "name": "اسکندری جنوبی",
        "id": 1942,
        "lat": 35.68756584,
        "long": 51.38181204
      },
      "اسکندریشمالی": {
        "name": "اسکندری شمالی",
        "id": 1941,
        "lat": 35.69078998,
        "long": 51.38159747
      },
      "اسلامشهر": {
        "name": "اسلامشهر",
        "id": 1787,
        "lat": 35.54713437,
        "long": 51.23400884
      },
      "افسریه": {
        "name": "افسریه",
        "id": 967,
        "lat": 35.65559566,
        "long": 51.49176116
      },
      "اقدسیه": {
        "name": "اقدسیه",
        "id": 968,
        "lat": 35.7956369,
        "long": 51.48764399
      },
      "اکباتان": {
        "name": "اکباتان",
        "id": 969,
        "lat": 35.71115498,
        "long": 51.30944255
      },
      "المهدی": {
        "name": "المهدی",
        "id": 970,
        "lat": 35.77458025,
        "long": 51.32773881
      },
      "الهیه": {
        "name": "الهیه",
        "id": 971,
        "lat": 35.79076172,
        "long": 51.42729602
      },
      "الوند": {
        "name": "الوند",
        "id": 1938,
        "lat": 35.72371851,
        "long": 51.42118209
      },
      "امامت": {
        "name": "امامت",
        "id": 974,
        "lat": 35.73816849,
        "long": 51.31513043
      },
      "امامحسین(ع)": {
        "name": "امام حسین(ع)",
        "id": 972,
        "lat": 35.70200478,
        "long": 51.44766307
      },
      "امامزادهحسن(ع)": {
        "name": "امامزاده حسن(ع)",
        "id": 975,
        "lat": 35.66450775,
        "long": 51.35970377
      },
      "امامزادهقاسم": {
        "name": "امامزاده قاسم",
        "id": 2007,
        "lat": 35.81255633,
        "long": 51.43981633
      },
      "امامسجاد(ع)": {
        "name": "امام سجاد(ع)",
        "id": 973,
        "lat": 35.8090689,
        "long": 51.52381091
      },
      "امامعلی": {
        "name": "امام علی",
        "id": 1991,
        "lat": 35.70084897,
        "long": 51.4574201
      },
      "امانیه": {
        "name": "امانیه",
        "id": 977,
        "lat": 35.78354609,
        "long": 51.41867999
      },
      "امیرآباد": {
        "name": "امیرآباد",
        "id": 979,
        "lat": 35.74196431,
        "long": 51.39108164
      },
      "امیربهادر": {
        "name": "امیر بهادر",
        "id": 978,
        "lat": 35.6713211,
        "long": 51.40362377
      },
      "امیرکبیر": {
        "name": "امیرکبیر",
        "id": 1821,
        "lat": 35.69674366,
        "long": 51.39076347
      },
      "امیریه": {
        "name": "امیریه",
        "id": 980,
        "lat": 35.67854613,
        "long": 51.40121995
      },
      "امینحضور": {
        "name": "امین حضور",
        "id": 981,
        "lat": 35.68336691,
        "long": 51.43721998
      },
      "اندرزگو": {
        "name": "اندرزگو",
        "id": 1999,
        "lat": 35.80055214,
        "long": 51.45075658
      },
      "اندیشه": {
        "name": "اندیشه",
        "id": 982,
        "lat": 35.70786611,
        "long": 51.02217009
      },
      "انقلابفلسطین": {
        "name": "انقلاب - فلسطین",
        "id": 983,
        "lat": 35.69687928,
        "long": 51.40207748
      },
      "اوقاف": {
        "name": "اوقاف",
        "id": 984,
        "lat": 35.7486907,
        "long": 51.51115898
      },
      "اوین": {
        "name": "اوین",
        "id": 985,
        "lat": 35.80242042,
        "long": 51.39342128
      },
      "ایران": {
        "name": "ایران",
        "id": 986,
        "lat": 35.68500397,
        "long": 51.43863462
      },
      "ایرانشهر": {
        "name": "ایرانشهر",
        "id": 987,
        "lat": 35.70953049,
        "long": 51.42153016
      },
      "ایرانمهر": {
        "name": "ایرانمهر",
        "id": 1816,
        "lat": 35.69817383,
        "long": 51.45159055
      },
      "ایوانک": {
        "name": "ایوانک",
        "id": 988,
        "lat": 35.75791751,
        "long": 51.35495536
      },
      "بابهمایون": {
        "name": "باب همایون",
        "id": 1944,
        "lat": 35.68407896,
        "long": 51.42069493
      },
      "بازار": {
        "name": "بازار",
        "id": 1002,
        "lat": 35.67302495,
        "long": 51.42291427
      },
      "باغآذری": {
        "name": "باغ آذری",
        "id": 1003,
        "lat": 35.65335596,
        "long": 51.42703444
      },
      "باغخزانه": {
        "name": "باغ خزانه",
        "id": 1004,
        "lat": 35.6636515,
        "long": 51.36910475
      },
      "باغرضوان": {
        "name": "باغ رضوان",
        "id": 1005,
        "lat": 35.74125197,
        "long": 51.43017548
      },
      "باغفردوس": {
        "name": "باغ فردوس",
        "id": 1006,
        "lat": 35.72616634,
        "long": 51.30861526
      },
      "باغفیض": {
        "name": "باغ فیض",
        "id": 1007,
        "lat": 35.74584559,
        "long": 51.32243219
      },
      "باقرخان": {
        "name": "باقرخان",
        "id": 1903,
        "lat": 35.67804721,
        "long": 51.4423822
      },
      "بخارست": {
        "name": "بخارست",
        "id": 1935,
        "lat": 35.73274492,
        "long": 51.41691685
      },
      "برادرانمظفر": {
        "name": "برادران مظفر",
        "id": 1860,
        "lat": 35.70175843,
        "long": 51.404152
      },
      "برلن": {
        "name": "برلن",
        "id": 1812,
        "lat": 35.69301096,
        "long": 51.42236034
      },
      "بریانک": {
        "name": "بریانک",
        "id": 1008,
        "lat": 35.67677321,
        "long": 51.37667296
      },
      "بعثت": {
        "name": "بعثت",
        "id": 1987,
        "lat": 35.64527081,
        "long": 51.43796554
      },
      "بلوارفردوسشرق": {
        "name": "بلوار فردوس شرق",
        "id": 1009,
        "lat": 35.72477004,
        "long": 51.31139495
      },
      "بلوارفردوسغرب": {
        "name": "بلوار فردوس غرب",
        "id": 1010,
        "lat": 35.7257891,
        "long": 51.3082514
      },
      "بلوارکشاورز": {
        "name": "بلوار کشاورز",
        "id": 1011,
        "lat": 35.70871572,
        "long": 51.39651217
      },
      "بلورسازی": {
        "name": "بلورسازی",
        "id": 1012,
        "lat": 35.65595738,
        "long": 51.4312647
      },
      "بنیهاشم": {
        "name": "بنی هاشم",
        "id": 1927,
        "lat": 35.74806427,
        "long": 51.46512575
      },
      "بهار": {
        "name": "بهار",
        "id": 1013,
        "lat": 35.71117681,
        "long": 51.4304458
      },
      "بهاران": {
        "name": "بهاران",
        "id": 1014,
        "lat": 35.76798175,
        "long": 51.2711978
      },
      "بهارستان": {
        "name": "بهارستان",
        "id": 1810,
        "lat": 35.69473659,
        "long": 51.42919058
      },
      "بهبودی": {
        "name": "بهبودی",
        "id": 1898,
        "lat": 35.70634466,
        "long": 51.36782342
      },
      "بهجت‌آباد": {
        "name": "بهجت ‌آباد",
        "id": 1016,
        "lat": 35.71991296,
        "long": 51.41214411
      },
      "بهداشت": {
        "name": "بهداشت",
        "id": 1017,
        "lat": 35.65739165,
        "long": 51.33859637
      },
      "بهرامآباد": {
        "name": "بهرام آباد",
        "id": 1795,
        "lat": 35.5719817,
        "long": 51.25887033
      },
      "بهشتزهرا": {
        "name": "بهشت زهرا",
        "id": 1018,
        "lat": 35.53060846,
        "long": 51.37634575
      },
      "بهشتی": {
        "name": "بهشتی",
        "id": 1951,
        "lat": 35.7311536,
        "long": 51.43269471
      },
      "بهمنیار": {
        "name": "بهمن یار",
        "id": 1019,
        "lat": 35.62939361,
        "long": 51.39858714
      },
      "بومهن": {
        "name": "بومهن",
        "id": 1020,
        "lat": 35.7321977,
        "long": 51.86843587
      },
      "بیستون": {
        "name": "بیستون",
        "id": 1954,
        "lat": 35.72144968,
        "long": 51.4048582
      },
      "بیسیم": {
        "name": "بیسیم",
        "id": 1021,
        "lat": 35.65202152,
        "long": 51.44889947
      },
      "بیهقی": {
        "name": "بیهقی",
        "id": 1937,
        "lat": 35.7375135,
        "long": 51.4156857
      },
      "پاتریس": {
        "name": "پاتریس",
        "id": 1900,
        "lat": 35.72681418,
        "long": 51.37618311
      },
      "پاتریسلومومبا": {
        "name": "پاتریس لومومبا",
        "id": 1022,
        "lat": 35.72681418,
        "long": 51.37618311
      },
      "پارکساعی": {
        "name": "پارک ساعی",
        "id": 1933,
        "lat": 35.73656476,
        "long": 51.41079806
      },
      "پارکلاله": {
        "name": "پارک لاله",
        "id": 1958,
        "lat": 35.71151002,
        "long": 51.39289506
      },
      "پارکملت": {
        "name": "پارک ملت",
        "id": 1972,
        "lat": 35.77838207,
        "long": 51.41062473
      },
      "پارکوی": {
        "name": "پارک وی",
        "id": 1973,
        "lat": 35.79118555,
        "long": 51.41634633
      },
      "پاستور": {
        "name": "پاستور",
        "id": 1939,
        "lat": 35.7429453,
        "long": 51.30383201
      },
      "پاسداران": {
        "name": "پاسداران",
        "id": 1024,
        "lat": 35.78162598,
        "long": 51.46815735
      },
      "پاسدارگمنام": {
        "name": "پاسدار گمنام",
        "id": 1023,
        "lat": 35.78162598,
        "long": 51.46815735
      },
      "پاکدشت": {
        "name": "پاکدشت",
        "id": 1025,
        "lat": 35.46741444,
        "long": 51.68542722
      },
      "پامنار": {
        "name": "پامنار",
        "id": 1026,
        "lat": 35.68138696,
        "long": 51.42411582
      },
      "پردیس": {
        "name": "پردیس",
        "id": 1027,
        "lat": 35.74893199,
        "long": 51.79830829
      },
      "پرستار": {
        "name": "پرستار",
        "id": 1028,
        "lat": 35.68199248,
        "long": 51.48335651
      },
      "پرند": {
        "name": "پرند",
        "id": 1029,
        "lat": 35.48439062,
        "long": 50.93669346
      },
      "پرندک": {
        "name": "پرندک",
        "id": 1801,
        "lat": 35.50722726,
        "long": 51.01591825
      },
      "پرواز": {
        "name": "پرواز",
        "id": 1030,
        "lat": 35.72561051,
        "long": 51.30666726
      },
      "پلچوبی": {
        "name": "پل چوبی",
        "id": 1031,
        "lat": 35.70182949,
        "long": 51.43839011
      },
      "پلطبیعت": {
        "name": "پل طبیعت",
        "id": 1976,
        "lat": 35.75448773,
        "long": 51.42048523
      },
      "پلیس": {
        "name": "پلیس",
        "id": 1032,
        "lat": 35.72200441,
        "long": 51.44729634
      },
      "پونک": {
        "name": "پونک",
        "id": 1033,
        "lat": 35.76099003,
        "long": 51.3387679
      },
      "پیچشمیران": {
        "name": "پیچ شمیران",
        "id": 1829,
        "lat": 35.80925589,
        "long": 51.43137646
      },
      "پیروزی": {
        "name": "پیروزی",
        "id": 1034,
        "lat": 35.69245837,
        "long": 51.48347848
      },
      "تئاترشهر": {
        "name": "تئاتر شهر",
        "id": 1876,
        "lat": 35.70033487,
        "long": 51.40553391
      },
      "تاکسیرانی": {
        "name": "تاکسیرانی",
        "id": 1035,
        "lat": 35.70033487,
        "long": 51.38540661
      },
      "تجریش": {
        "name": "تجریش",
        "id": 1036,
        "lat": 35.79560888,
        "long": 51.43174398
      },
      "ترمینالجنوب": {
        "name": "ترمینال جنوب",
        "id": 1986,
        "lat": 35.64922056,
        "long": 51.41896775
      },
      "تسلیحات": {
        "name": "تسلیحات",
        "id": 1037,
        "lat": 35.71901928,
        "long": 51.47450814
      },
      "تقیآباد": {
        "name": "تقی آباد",
        "id": 1038,
        "lat": 35.58116648,
        "long": 51.46361227
      },
      "تهرانپارسشرقی": {
        "name": "تهرانپارس شرقی",
        "id": 1042,
        "lat": 35.74315029,
        "long": 51.54976116
      },
      "تهرانپارسغربی": {
        "name": "تهرانپارس غربی",
        "id": 1043,
        "lat": 35.74072809,
        "long": 51.53207988
      },
      "تهرانسر": {
        "name": "تهرانسر",
        "id": 1044,
        "lat": 35.69295912,
        "long": 51.25601689
      },
      "تهران‌نو": {
        "name": "تهران ‌نو",
        "id": 1040,
        "lat": 35.71073806,
        "long": 51.4970997
      },
      "تهران‌ویلا": {
        "name": "تهران ‌ویلا",
        "id": 1041,
        "lat": 35.72361326,
        "long": 51.36595942
      },
      "توانیر": {
        "name": "توانیر",
        "id": 1045,
        "lat": 35.74767407,
        "long": 51.40895059
      },
      "توحید": {
        "name": "توحید",
        "id": 1046,
        "lat": 35.70592173,
        "long": 51.37768312
      },
      "تولیددارو": {
        "name": "تولید دارو",
        "id": 1047,
        "lat": 35.66384488,
        "long": 51.33748582
      },
      "تیموری": {
        "name": "تیموری",
        "id": 1048,
        "lat": 35.71051495,
        "long": 51.35128854
      },
      "جابری": {
        "name": "جابری",
        "id": 1049,
        "lat": 35.69502079,
        "long": 51.36677025
      },
      "جردن": {
        "name": "جردن",
        "id": 1050,
        "lat": 35.7622158,
        "long": 51.41854413
      },
      "جلفا": {
        "name": "جلفا",
        "id": 1051,
        "lat": 35.7489564,
        "long": 51.44404573
      },
      "جلیلی": {
        "name": "جلیلی",
        "id": 1052,
        "lat": 35.65522877,
        "long": 51.32197782
      },
      "جماران": {
        "name": "جماران",
        "id": 1053,
        "lat": 35.81643057,
        "long": 51.45714591
      },
      "جمال‌زاده": {
        "name": "جمال ‌زاده",
        "id": 1054,
        "lat": 35.69867551,
        "long": 51.3880777
      },
      "جمالزادهجنوبی": {
        "name": "جمالزاده جنوبی",
        "id": 1055,
        "lat": 35.69850125,
        "long": 51.38903257
      },
      "جمالزادهشمالی": {
        "name": "جمالزاده شمالی",
        "id": 1056,
        "lat": 35.69850125,
        "long": 51.38903257
      },
      "جمهوری": {
        "name": "جمهوری",
        "id": 1057,
        "lat": 35.69658868,
        "long": 51.38357705
      },
      "جنت‌آبادجنوبی": {
        "name": "جنت ‌آباد جنوبی",
        "id": 1058,
        "lat": 35.74759143,
        "long": 51.30220412
      },
      "جنت‌آبادشمالی": {
        "name": "جنت ‌آباد شمالی",
        "id": 1059,
        "lat": 35.77271775,
        "long": 51.30800309
      },
      "جنت‌آبادمرکزی": {
        "name": "جنت ‌آباد مرکزی",
        "id": 1060,
        "lat": 35.75740257,
        "long": 51.30460734
      },
      "جهاد": {
        "name": "جهاد",
        "id": 1061,
        "lat": 35.72755728,
        "long": 51.34820792
      },
      "جوادیهتهرانپارس": {
        "name": "جوادیه تهرانپارس",
        "id": 1064,
        "lat": 35.65363822,
        "long": 51.39056708
      },
      "جوادیهمنطقه16": {
        "name": "جوادیه - منطقه 16",
        "id": 1062,
        "lat": 35.65363822,
        "long": 51.39056708
      },
      "جوادیهمنطقه4": {
        "name": "جوادیه - منطقه 4",
        "id": 1063,
        "lat": 35.65363822,
        "long": 51.39056708
      },
      "جوانمردقصاب": {
        "name": "جوانمرد قصاب",
        "id": 1065,
        "lat": 35.61394829,
        "long": 51.42750069
      },
      "جویبار": {
        "name": "جویبار",
        "id": 1957,
        "lat": 35.7240499,
        "long": 51.48881412
      },
      "جی": { "name": "جی", "id": 1066, "lat": 35.6925321, "long": 51.3543199 },
      "جیحون": {
        "name": "جیحون",
        "id": 1067,
        "lat": 35.68969927,
        "long": 51.36403815
      },
      "چراغبرق": {
        "name": "چراغ برق",
        "id": 1822,
        "lat": 35.66903085,
        "long": 51.41752137
      },
      "چهارارهامیراکرم": {
        "name": "چهاراره امیراکرم",
        "id": 1855,
        "lat": 35.69700158,
        "long": 51.40433593
      },
      "چهاردانگه": {
        "name": "چهاردانگه",
        "id": 1788,
        "lat": 35.60536455,
        "long": 51.31207667
      },
      "چهاردیواری": {
        "name": "چهاردیواری",
        "id": 1068,
        "lat": 35.77859331,
        "long": 51.33566204
      },
      "چهارراهاستانبول": {
        "name": "چهارراه استانبول",
        "id": 1827,
        "lat": 35.69587373,
        "long": 51.41983869
      },
      "چهارراهجهانکودک": {
        "name": "چهارراه جهان کودک",
        "id": 1871,
        "lat": 35.75805923,
        "long": 51.41429377
      },
      "چهارراهسئول": {
        "name": "چهارراه سئول",
        "id": 1995,
        "lat": 35.77625216,
        "long": 51.3956898
      },
      "چهارراهگلوبندک": {
        "name": "چهارراه گلوبندک",
        "id": 1909,
        "lat": 35.67824232,
        "long": 51.41696347
      },
      "چهارراهلشگر": {
        "name": "چهارراه لشگر",
        "id": 1908,
        "lat": 35.68250499,
        "long": 51.39361863
      },
      "چهارراهولیعصر": {
        "name": "چهارراه ولیعصر",
        "id": 1834,
        "lat": 35.70123278,
        "long": 51.40536863
      },
      "چهارصددستگاه": {
        "name": "چهارصد دستگاه",
        "id": 1069,
        "lat": 35.68263187,
        "long": 51.45912096
      },
      "چیتگر": {
        "name": "چیتگر",
        "id": 1070,
        "lat": 35.71530549,
        "long": 51.18275429
      },
      "چیتگرجنوبی": {
        "name": "چیتگر جنوبی",
        "id": 1071,
        "lat": 35.71530549,
        "long": 51.18275429
      },
      "چیتگرشمالی": {
        "name": "چیتگر شمالی",
        "id": 1072,
        "lat": 35.71530549,
        "long": 51.18275429
      },
      "چیذر": {
        "name": "چیذر",
        "id": 1073,
        "lat": 35.79754005,
        "long": 51.45592144
      },
      "حافظیه": {
        "name": "حافظیه",
        "id": 1074,
        "lat": 35.76317741,
        "long": 51.39762725
      },
      "حبیبالهی": {
        "name": "حبیب الهی",
        "id": 1904,
        "lat": 35.78907015,
        "long": 51.4465746
      },
      "حجاب": {
        "name": "حجاب",
        "id": 1956,
        "lat": 35.71253305,
        "long": 51.39563455
      },
      "حسنآباد": {
        "name": "حسن آباد",
        "id": 1839,
        "lat": 35.68543867,
        "long": 51.40850986
      },
      "حسن‌آباد": {
        "name": "حسن ‌آباد",
        "id": 1075,
        "lat": 35.68543867,
        "long": 51.40850986
      },
      "حسن‌آبادباقرفر": {
        "name": "حسن ‌آباد باقرفر",
        "id": 1076,
        "lat": 35.37421194,
        "long": 51.23894674
      },
      "حسین‌آباد": {
        "name": "حسین ‌آباد",
        "id": 1077,
        "lat": 35.768943,
        "long": 51.47944429
      },
      "حشمتیه": {
        "name": "حشمتیه",
        "id": 1078,
        "lat": 35.7215389,
        "long": 51.45831994
      },
      "حصاربوعلی": {
        "name": "حصار بوعلی",
        "id": 1079,
        "lat": 35.80565152,
        "long": 51.46667183
      },
      "حصارک": {
        "name": "حصارک",
        "id": 1080,
        "lat": 35.78182206,
        "long": 51.30868427
      },
      "حقانی": {
        "name": "حقانی",
        "id": 1977,
        "lat": 35.75835269,
        "long": 51.42176867
      },
      "حقوقی": {
        "name": "حقوقی",
        "id": 1982,
        "lat": 35.70296082,
        "long": 51.43579122
      },
      "حکمت": {
        "name": "حکمت",
        "id": 1081,
        "lat": 35.80134207,
        "long": 51.44383368
      },
      "حکیمیه": {
        "name": "حکیمیه",
        "id": 1082,
        "lat": 35.73861273,
        "long": 51.58272695
      },
      "حمزه‌آباد": {
        "name": "حمزه‌ آباد",
        "id": 1083,
        "lat": 35.71219144,
        "long": 51.37371821
      },
      "خاقانی": {
        "name": "خاقانی",
        "id": 1084,
        "lat": 35.69036574,
        "long": 51.39487974
      },
      "خاکسفید": {
        "name": "خاک سفید",
        "id": 1085,
        "lat": 35.74330722,
        "long": 51.56321523
      },
      "خانی‌آباد": {
        "name": "خانی ‌آباد",
        "id": 1086,
        "lat": 35.66298292,
        "long": 51.41034178
      },
      "خانی‌آبادنو": {
        "name": "خانی ‌آباد نو",
        "id": 1087,
        "lat": 35.66298292,
        "long": 51.41034178
      },
      "خاوران": {
        "name": "خاوران",
        "id": 1088,
        "lat": 35.66548997,
        "long": 51.45168899
      },
      "خراسان": {
        "name": "خراسان",
        "id": 1784,
        "lat": 35.66579569,
        "long": 51.44541568
      },
      "خرمشهرنواب": {
        "name": "خرمشهر - نواب",
        "id": 1089,
        "lat": 35.67727409,
        "long": 51.38282598
      },
      "خزانهبخارایی": {
        "name": "خزانه بخارایی",
        "id": 1090,
        "lat": 35.63988526,
        "long": 51.42524627
      },
      "خلیجفارس": {
        "name": "خلیج فارس",
        "id": 1091,
        "lat": 35.671702,
        "long": 51.25850925
      },
      "خواجهعبداللهانصاری": {
        "name": "خواجه عبدالله انصاری",
        "id": 1924,
        "lat": 35.74459528,
        "long": 51.45602451
      },
      "خواجهنصیرطوسی": {
        "name": "خواجه نصیر طوسی",
        "id": 1092,
        "lat": 35.70718838,
        "long": 51.43677082
      },
      "خواجهنظامالملک": {
        "name": "خواجه نظام الملک",
        "id": 1093,
        "lat": 35.71836795,
        "long": 51.45092303
      },
      "خیاباناکباتان": {
        "name": "خیابان اکباتان",
        "id": 1854,
        "lat": 35.68800593,
        "long": 51.42481963
      },
      "خیابانایتالیا": {
        "name": "خیابان ایتالیا",
        "id": 1861,
        "lat": 35.70778198,
        "long": 51.40030453
      },
      "خیابانایران": {
        "name": "خیابان ایران",
        "id": 1895,
        "lat": 35.68691845,
        "long": 51.43894051
      },
      "خیابانایرانمهر": {
        "name": "خیابان ایرانمهر",
        "id": 1896,
        "lat": 35.68691845,
        "long": 51.43894051
      },
      "خیابانخارک": {
        "name": "خیابان خارک",
        "id": 1836,
        "lat": 35.69937366,
        "long": 51.40999944
      },
      "خیابانخوش": {
        "name": "خیابان خوش",
        "id": 1892,
        "lat": 35.695561,
        "long": 51.37276968
      },
      "خیابانرازی": {
        "name": "خیابان رازی",
        "id": 1916,
        "lat": 35.69864756,
        "long": 51.40726101
      },
      "خیابانفاطمی": {
        "name": "خیابان فاطمی",
        "id": 1875,
        "lat": 35.71521678,
        "long": 51.39167348
      },
      "خیابانفردوسی": {
        "name": "خیابان فردوسی",
        "id": 1814,
        "lat": 35.6975957,
        "long": 51.41962338
      },
      "خیابانکاخ": {
        "name": "خیابان کاخ",
        "id": 1879,
        "lat": 32.6326535,
        "long": 51.6754566
      },
      "خیابانملت": {
        "name": "خیابان ملت",
        "id": 1825,
        "lat": 35.68779442,
        "long": 51.42650938
      },
      "خیابانهاشمی": {
        "name": "خیابان هاشمی",
        "id": 1891,
        "lat": 35.64709766,
        "long": 51.47038718
      },
      "خیام": {
        "name": "خیام",
        "id": 1820,
        "lat": 35.66217688,
        "long": 51.41485845
      },
      "دارآباد": {
        "name": "دارآباد",
        "id": 1094,
        "lat": 35.81821745,
        "long": 51.49100975
      },
      "دامپزشکی": {
        "name": "دامپزشکی",
        "id": 1888,
        "lat": 35.60735211,
        "long": 51.43774851
      },
      "دانشگاهتهران": {
        "name": "دانشگاه تهران",
        "id": 1095,
        "lat": 35.70243699,
        "long": 51.39566632
      },
      "دانشگاهشریف": {
        "name": "دانشگاه شریف",
        "id": 1096,
        "lat": 35.7034743,
        "long": 51.35156318
      },
      "دانشگاهعلموصنعت": {
        "name": "دانشگاه علم و صنعت",
        "id": 1097,
        "lat": 35.7424914,
        "long": 51.50239617
      },
      "دبستان": {
        "name": "دبستان",
        "id": 1098,
        "lat": 35.73962406,
        "long": 51.45452137
      },
      "دربدوم": {
        "name": "درب دوم",
        "id": 1099,
        "lat": 35.78171765,
        "long": 51.44176485
      },
      "دربند": {
        "name": "دربند",
        "id": 1100,
        "lat": 35.82410871,
        "long": 51.42561662
      },
      "دردشت": {
        "name": "دردشت",
        "id": 1101,
        "lat": 35.72719228,
        "long": 51.50262101
      },
      "درکه": {
        "name": "درکه",
        "id": 1102,
        "lat": 35.80689247,
        "long": 51.38185792
      },
      "دروازهدولت": {
        "name": "دروازه دولت",
        "id": 1828,
        "lat": 35.70210541,
        "long": 51.42600602
      },
      "دروازهشمیران": {
        "name": "دروازه شمیران",
        "id": 1830,
        "lat": 35.69704577,
        "long": 51.44227981
      },
      "دروس": {
        "name": "دروس",
        "id": 1104,
        "lat": 35.77392267,
        "long": 51.45576058
      },
      "دریا": {
        "name": "دریا",
        "id": 1105,
        "lat": 35.77475423,
        "long": 51.37060067
      },
      "دریاچهشهدایخلیجفارس": {
        "name": "دریاچه شهدای خلیج فارس",
        "id": 1106,
        "lat": 35.74589666,
        "long": 51.21446362
      },
      "دریان‌نو": {
        "name": "دریان‌ نو",
        "id": 1107,
        "lat": 35.71277559,
        "long": 51.36395901
      },
      "دزاشیب": {
        "name": "دزاشیب",
        "id": 1108,
        "lat": 35.80966346,
        "long": 51.45356642
      },
      "دکترهوشیار": {
        "name": "دکتر هوشیار",
        "id": 1109,
        "lat": 35.69790889,
        "long": 51.35173375
      },
      "دلگشا": {
        "name": "دلگشا",
        "id": 1110,
        "lat": 35.70944557,
        "long": 51.31819851
      },
      "دهقان": {
        "name": "دهقان",
        "id": 1112,
        "lat": 35.69590652,
        "long": 51.47597372
      },
      "دهکدهالمپیک": {
        "name": "دهکده المپیک",
        "id": 1113,
        "lat": 35.76106115,
        "long": 51.26351055
      },
      "ده‌ونک": {
        "name": "ده ‌ونک",
        "id": 1111,
        "lat": 35.76924799,
        "long": 51.39203776
      },
      "دولاب": {
        "name": "دولاب",
        "id": 1114,
        "lat": 35.66677966,
        "long": 51.46102841
      },
      "دولت‌آباد": {
        "name": "دولت ‌آباد",
        "id": 1115,
        "lat": 35.61777765,
        "long": 51.45115777
      },
      "دولتخواه": {
        "name": "دولتخواه",
        "id": 1116,
        "lat": 35.62027586,
        "long": 51.34301017
      },
      "دیلمان": {
        "name": "دیلمان",
        "id": 1117,
        "lat": 35.60070903,
        "long": 51.4363737
      },
      "رازی": {
        "name": "رازی",
        "id": 1118,
        "lat": 35.66745927,
        "long": 51.39438626
      },
      "راهآهن": {
        "name": "راه آهن",
        "id": 1913,
        "lat": 35.65043127,
        "long": 51.40917732
      },
      "رباطکریم": {
        "name": "رباط کریم",
        "id": 1119,
        "lat": 35.47844967,
        "long": 51.08423642
      },
      "رسالت": {
        "name": "رسالت",
        "id": 1980,
        "lat": 35.73709692,
        "long": 51.4865952
      },
      "رودکی": {
        "name": "رودکی",
        "id": 1885,
        "lat": 35.7008696,
        "long": 51.37501881
      },
      "رودهن": {
        "name": "رودهن",
        "id": 1120,
        "lat": 35.73193171,
        "long": 51.90842615
      },
      "زاهدگیلانی": {
        "name": "زاهد گیلانی",
        "id": 1121,
        "lat": 35.69769458,
        "long": 51.4596263
      },
      "زرافشان": {
        "name": "زرافشان",
        "id": 1792,
        "lat": 35.76090631,
        "long": 51.35384995
      },
      "زرکش": {
        "name": "زرکش",
        "id": 1122,
        "lat": 35.70843799,
        "long": 51.40026601
      },
      "زرگنده": {
        "name": "زرگنده",
        "id": 1123,
        "lat": 35.77682595,
        "long": 51.43208742
      },
      "زعفرانیه": {
        "name": "زعفرانیه",
        "id": 1124,
        "lat": 35.81103942,
        "long": 51.4117971
      },
      "زمزم": {
        "name": "زمزم",
        "id": 1125,
        "lat": 35.64764574,
        "long": 51.36754265
      },
      "زنجان": {
        "name": "زنجان",
        "id": 1126,
        "lat": 35.71037895,
        "long": 51.36046055
      },
      "زهتابی": {
        "name": "زهتابی",
        "id": 1127,
        "lat": 35.6415984,
        "long": 51.35952706
      },
      "زیبادشت": {
        "name": "زیبادشت",
        "id": 1128,
        "lat": 35.74771135,
        "long": 51.42680243
      },
      "زینبیه": {
        "name": "زینبیه",
        "id": 1129,
        "lat": 32.69721686,
        "long": 51.70517785
      },
      "سئول": {
        "name": "سئول",
        "id": 1971,
        "lat": 35.70546057,
        "long": 51.40398988
      },
      "سازمانآب": {
        "name": "سازمان آب",
        "id": 1130,
        "lat": 35.71403466,
        "long": 51.39852755
      },
      "سازمانبرنامه": {
        "name": "سازمان برنامه",
        "id": 1131,
        "lat": 35.73771662,
        "long": 51.30062692
      },
      "سازمانبرنامهجنوبی": {
        "name": "سازمان برنامه جنوبی",
        "id": 1132,
        "lat": 35.73771662,
        "long": 51.30062692
      },
      "سازمانبرنامهشمالی": {
        "name": "سازمان برنامه شمالی",
        "id": 1133,
        "lat": 35.73771662,
        "long": 51.30062692
      },
      "سبزهمیدان": {
        "name": "سبزه میدان",
        "id": 1961,
        "lat": 35.67743773,
        "long": 51.41994583
      },
      "سبلان": {
        "name": "سبلان",
        "id": 1134,
        "lat": 35.72448303,
        "long": 51.46055867
      },
      "سپهبدقرنی": {
        "name": "سپهبد قرنی",
        "id": 1841,
        "lat": 35.70883793,
        "long": 51.41826815
      },
      "سپهر": {
        "name": "سپهر",
        "id": 1135,
        "lat": 35.76579172,
        "long": 51.37706985
      },
      "ستارخان": {
        "name": "ستارخان",
        "id": 1136,
        "lat": 35.72052184,
        "long": 51.36395918
      },
      "سرآسیابدولاب": {
        "name": "سرآسیاب دولاب",
        "id": 1137,
        "lat": 35.68778168,
        "long": 51.46192399
      },
      "سرآسیابمهرآباد": {
        "name": "سرآسیاب مهرآباد",
        "id": 1138,
        "lat": 35.67253693,
        "long": 51.33384238
      },
      "سرباز": {
        "name": "سرباز",
        "id": 1921,
        "lat": 35.69090333,
        "long": 51.39269644
      },
      "سرتخت": {
        "name": "سرتخت",
        "id": 1139,
        "lat": 35.69090333,
        "long": 51.39269644
      },
      "سرچشمه": {
        "name": "سرچشمه",
        "id": 1824,
        "lat": 35.68633861,
        "long": 51.43215971
      },
      "سرخهحصار": {
        "name": "سرخه حصار",
        "id": 1140,
        "lat": 35.72099441,
        "long": 51.6014206
      },
      "سردارسلیمانی": {
        "name": "سردار سلیمانی",
        "id": 1993,
        "lat": 29.7657929,
        "long": 52.55984081
      },
      "سرسبیل": {
        "name": "سرسبیل",
        "id": 1884,
        "lat": 35.69434495,
        "long": 51.37578945
      },
      "سرهنگسخائی": {
        "name": "سرهنگ سخائی",
        "id": 1945,
        "lat": 35.69036614,
        "long": 51.41568797
      },
      "سروآزاد": {
        "name": "سرو آزاد",
        "id": 1141,
        "lat": 35.73567314,
        "long": 51.1897661
      },
      "سعادت‌آباد": {
        "name": "سعادت ‌آباد",
        "id": 1142,
        "lat": 35.78580819,
        "long": 51.37460228
      },
      "سعدی": {
        "name": "سعدی",
        "id": 1807,
        "lat": 35.68818299,
        "long": 51.42390847
      },
      "سعدیجنوبی": {
        "name": "سعدی جنوبی",
        "id": 1845,
        "lat": 35.68818299,
        "long": 51.42390847
      },
      "سعدیشمالی": {
        "name": "سعدی شمالی",
        "id": 1844,
        "lat": 35.68818299,
        "long": 51.42390847
      },
      "سعیدآباد": {
        "name": "سعید آباد",
        "id": 1143,
        "lat": 35.89975575,
        "long": 50.71643085
      },
      "سلامت": {
        "name": "سلامت",
        "id": 1144,
        "lat": 35.6904021,
        "long": 51.39374775
      },
      "سلسبیل": {
        "name": "سلسبیل",
        "id": 1145,
        "lat": 35.69434495,
        "long": 51.37578945
      },
      "سلطانآباد": {
        "name": "سلطان آباد",
        "id": 1791,
        "lat": 35.52757036,
        "long": 51.15131435
      },
      "سلیمانی": {
        "name": "سلیمانی",
        "id": 1146,
        "lat": 29.7657929,
        "long": 52.55984081
      },
      "سنایی": {
        "name": "سنایی",
        "id": 1147,
        "lat": 35.71971123,
        "long": 51.41875337
      },
      "سنگلج": {
        "name": "سنگلج",
        "id": 1148,
        "lat": 35.67583511,
        "long": 51.41249651
      },
      "سهراهآدران": {
        "name": "سه راه آدران",
        "id": 1790,
        "lat": 35.5169627,
        "long": 51.15353765
      },
      "سهراهآذری": {
        "name": "سه راه آذری",
        "id": 1894,
        "lat": 35.67859234,
        "long": 51.3590284
      },
      "سهراهشریعتی": {
        "name": "سه راه شریعتی",
        "id": 1864,
        "lat": 35.71210923,
        "long": 51.43188512
      },
      "سهراهطالاقانی": {
        "name": "سه راه طالاقانی",
        "id": 1928,
        "lat": 35.70987908,
        "long": 51.4315418
      },
      "سهروردی": {
        "name": "سهروردی",
        "id": 1149,
        "lat": 35.72137603,
        "long": 51.43397724
      },
      "سهروردیباغصبا": {
        "name": "سهروردی - باغ صبا",
        "id": 1150,
        "lat": 35.72137603,
        "long": 51.43397724
      },
      "سهروردیجنوبی": {
        "name": "سهروردی جنوبی",
        "id": 1947,
        "lat": 35.72137603,
        "long": 51.43397724
      },
      "سهروردیشمالی": {
        "name": "سهروردی شمالی",
        "id": 1946,
        "lat": 35.72137603,
        "long": 51.43397724
      },
      "سوهانک": {
        "name": "سوهانک",
        "id": 1151,
        "lat": 35.80243313,
        "long": 51.5326847
      },
      "سیتیر": {
        "name": "سی تیر",
        "id": 1853,
        "lat": 35.69037136,
        "long": 51.41425498
      },
      "سیدخندان": {
        "name": "سیدخندان",
        "id": 1865,
        "lat": 35.74017968,
        "long": 51.45038689
      },
      "سیروس": {
        "name": "سیروس",
        "id": 1154,
        "lat": 35.77521914,
        "long": 51.43550421
      },
      "سیزدهآبان": {
        "name": "سیزده آبان",
        "id": 1155,
        "lat": 35.57858651,
        "long": 51.45854855
      },
      "سیمتریجی": {
        "name": "سی متری جی",
        "id": 1152,
        "lat": 35.67858178,
        "long": 51.35241177
      },
      "شاتره": {
        "name": "شاتره",
        "id": 1794,
        "lat": 35.58760076,
        "long": 51.28706328
      },
      "شادآباد": {
        "name": "شادآباد",
        "id": 1156,
        "lat": 35.65893004,
        "long": 51.3029887
      },
      "شادمان": {
        "name": "شادمان",
        "id": 1899,
        "lat": 35.7076985,
        "long": 51.36528341
      },
      "شادمهر": {
        "name": "شادمهر",
        "id": 1157,
        "lat": 35.7076985,
        "long": 51.36528341
      },
      "شارقشرقی": {
        "name": "شارق شرقی",
        "id": 1158,
        "lat": 35.71276243,
        "long": 51.46463874
      },
      "شاندیز": {
        "name": "شاندیز",
        "id": 1159,
        "lat": 35.76674057,
        "long": 51.47889782
      },
      "شاهد": {
        "name": "شاهد",
        "id": 1160,
        "lat": 35.66025541,
        "long": 51.47116495
      },
      "شاهین": {
        "name": "شاهین",
        "id": 1161,
        "lat": 35.76711801,
        "long": 51.31126743
      },
      "شبیری": {
        "name": "شبیری",
        "id": 1162,
        "lat": 35.67247791,
        "long": 51.35522367
      },
      "شریعتی": {
        "name": "شریعتی",
        "id": 1863,
        "lat": 35.75229493,
        "long": 51.44839924
      },
      "شریف": {
        "name": "شریف",
        "id": 1163,
        "lat": 35.70351786,
        "long": 51.35146662
      },
      "شریف‌آباد": {
        "name": "شریف‌ آباد",
        "id": 1164,
        "lat": 35.42759289,
        "long": 51.78525912
      },
      "شکوفه": {
        "name": "شکوفه",
        "id": 1165,
        "lat": 35.62690117,
        "long": 51.36704914
      },
      "شمسآبادمجیدیه": {
        "name": "شمس آباد - مجیدیه",
        "id": 1166,
        "lat": 35.7489647,
        "long": 51.47487392
      },
      "شمشیری": {
        "name": "شمشیری",
        "id": 1167,
        "lat": 35.67452742,
        "long": 51.34187802
      },
      "شمیران‌نو": {
        "name": "شمیران ‌نو",
        "id": 1168,
        "lat": 35.75455723,
        "long": 51.50068755
      },
      "شهادت": {
        "name": "شهادت",
        "id": 1169,
        "lat": 35.61473205,
        "long": 51.44293372
      },
      "شهرآرا": {
        "name": "شهرآرا",
        "id": 1183,
        "lat": 35.71857214,
        "long": 51.37431625
      },
      "شهران": {
        "name": "شهران",
        "id": 1180,
        "lat": 35.77262417,
        "long": 51.28842024
      },
      "شهرانجنوبی": {
        "name": "شهران جنوبی",
        "id": 1181,
        "lat": 35.77262417,
        "long": 51.28842024
      },
      "شهرانشمالی": {
        "name": "شهران شمالی",
        "id": 1182,
        "lat": 35.77262417,
        "long": 51.28842024
      },
      "شهرری": {
        "name": "شهر ری",
        "id": 1170,
        "lat": 35.57481527,
        "long": 51.45769695
      },
      "شهرریاستخر": {
        "name": "شهر ری - استخر",
        "id": 1171,
        "lat": 35.57481527,
        "long": 51.45769695
      },
      "شهرریاقدسیه": {
        "name": "شهر ری - اقدسیه",
        "id": 1172,
        "lat": 35.57481527,
        "long": 51.45769695
      },
      "شهرریتقی‌آباد": {
        "name": "شهر ری - تقی ‌آباد",
        "id": 1173,
        "lat": 35.57481527,
        "long": 51.45769695
      },
      "شهرریشهرکشهیدمفتح": {
        "name": "شهر ری - شهرک شهید مفتح",
        "id": 1174,
        "lat": 35.57481527,
        "long": 51.45769695
      },
      "شهرریعباس‌آباد": {
        "name": "شهر ری - عباس ‌آباد",
        "id": 1175,
        "lat": 35.57481527,
        "long": 51.45769695
      },
      "شهرریعلائین": {
        "name": "شهر ری - علائین",
        "id": 1176,
        "lat": 35.57481527,
        "long": 51.45769695
      },
      "شهرریهاشم‌آباد": {
        "name": "شهر ری - هاشم‌ آباد",
        "id": 1177,
        "lat": 35.57481527,
        "long": 51.45769695
      },
      "شهرزیبا": {
        "name": "شهرزیبا",
        "id": 1184,
        "lat": 35.74996012,
        "long": 51.29123925
      },
      "شهرقدس": {
        "name": "شهر قدس",
        "id": 1179,
        "lat": 35.71588043,
        "long": 51.1151116
      },
      "شهرکآپادانا": {
        "name": "شهرک آپادانا",
        "id": 1192,
        "lat": 35.70815394,
        "long": 51.32956524
      },
      "شهرکآزادی": {
        "name": "شهرک آزادی",
        "id": 1193,
        "lat": 35.71067612,
        "long": 51.2732677
      },
      "شهرکآسمان": {
        "name": "شهرک آسمان",
        "id": 1194,
        "lat": 35.68060011,
        "long": 51.26445821
      },
      "شهرکابوذر": {
        "name": "شهرک ابوذر",
        "id": 1185,
        "lat": 35.79701781,
        "long": 51.52074512
      },
      "شهرکاستقلال": {
        "name": "شهرک استقلال",
        "id": 1186,
        "lat": 35.70269768,
        "long": 51.22753126
      },
      "شهرکاکباتان": {
        "name": "شهرک اکباتان",
        "id": 1187,
        "lat": 35.70920358,
        "long": 51.30330565
      },
      "شهرکامامخمینی": {
        "name": "شهرک امام خمینی",
        "id": 1188,
        "lat": 35.65672943,
        "long": 51.31166698
      },
      "شهرکامید": {
        "name": "شهرک امید",
        "id": 1189,
        "lat": 35.76239861,
        "long": 51.53256568
      },
      "شهرکامیرالمومنین": {
        "name": "شهرک امیرالمومنین",
        "id": 1190,
        "lat": 35.6612778,
        "long": 51.51686795
      },
      "شهرکانصار": {
        "name": "شهرک انصار",
        "id": 1191,
        "lat": 35.71156755,
        "long": 51.25855564
      },
      "شهرکپاسداران": {
        "name": "شهرک پاسداران",
        "id": 1195,
        "lat": 35.69562591,
        "long": 51.26287222
      },
      "شهرکپرواز": {
        "name": "شهرک پرواز",
        "id": 1196,
        "lat": 35.72700408,
        "long": 51.30701059
      },
      "شهرکتختی": {
        "name": "شهرک تختی",
        "id": 1197,
        "lat": 35.62582769,
        "long": 51.41371861
      },
      "شهرکدانشگاهتهران": {
        "name": "شهرک دانشگاه تهران",
        "id": 1198,
        "lat": 35.71257736,
        "long": 51.19894962
      },
      "شهرکدانشگاهی": {
        "name": "شهرک دانشگاهی",
        "id": 1199,
        "lat": 35.71243798,
        "long": 51.19869213
      },
      "شهرکدریا": {
        "name": "شهرک دریا",
        "id": 1200,
        "lat": 35.68582848,
        "long": 51.24665618
      },
      "شهرکراهآهن": {
        "name": "شهرک راه آهن",
        "id": 1201,
        "lat": 35.67168291,
        "long": 51.4636047
      },
      "شهرکرضویه": {
        "name": "شهرک رضویه",
        "id": 1202,
        "lat": 35.61226645,
        "long": 51.49706126
      },
      "شهرکژاندارمری": {
        "name": "شهرک ژاندارمری",
        "id": 1203,
        "lat": 35.73176239,
        "long": 51.35913294
      },
      "شهرکسینمایی": {
        "name": "شهرک سینمایی",
        "id": 1204,
        "lat": 35.73214256,
        "long": 51.16049761
      },
      "شهرکشریعتی": {
        "name": "شهرک شریعتی",
        "id": 1205,
        "lat": 35.62677467,
        "long": 51.37938201
      },
      "شهرکشریفی": {
        "name": "شهرک شریفی",
        "id": 1206,
        "lat": 35.62188059,
        "long": 51.34567092
      },
      "شهرکشهیدباقری": {
        "name": "شهرک شهید باقری",
        "id": 1207,
        "lat": 35.76232783,
        "long": 51.20336474
      },
      "شهرکصدرا": {
        "name": "شهرک صدرا",
        "id": 1208,
        "lat": 35.73144795,
        "long": 51.2561557
      },
      "شهرکصنعتیشمسآباد": {
        "name": "شهرک صنعتی شمس آباد",
        "id": 2004,
        "lat": 35.33437197,
        "long": 51.24349516
      },
      "شهرکطالقانی": {
        "name": "شهرک طالقانی",
        "id": 1209,
        "lat": 35.6631091,
        "long": 51.27144369
      },
      "شهرکغرب": {
        "name": "شهرک غرب",
        "id": 1210,
        "lat": 35.75964904,
        "long": 51.37396935
      },
      "شهرکغزالی": {
        "name": "شهرک غزالی",
        "id": 1211,
        "lat": 35.73214256,
        "long": 51.16049761
      },
      "شهرکفردوس": {
        "name": "شهرک فردوس",
        "id": 1212,
        "lat": 35.66547683,
        "long": 51.32525498
      },
      "شهرکفرهنگیان": {
        "name": "شهرک فرهنگیان",
        "id": 1213,
        "lat": 35.71298065,
        "long": 51.28246309
      },
      "شهرککوهسار": {
        "name": "شهرک کوهسار",
        "id": 1214,
        "lat": 35.78244024,
        "long": 51.3333091
      },
      "شهرککیانشهر": {
        "name": "شهرک کیانشهر",
        "id": 1215,
        "lat": 35.6392732,
        "long": 51.44018656
      },
      "شهرکگلستان": {
        "name": "شهرک گلستان",
        "id": 1216,
        "lat": 35.76051016,
        "long": 51.5229014
      },
      "شهرکگلها": {
        "name": "شهرک گلها",
        "id": 1217,
        "lat": 35.77447596,
        "long": 51.49547307
      },
      "شهرکمحلاتی": {
        "name": "شهرک محلاتی",
        "id": 1218,
        "lat": 35.80436963,
        "long": 51.5104391
      },
      "شهرکمسلمین": {
        "name": "شهرک مسلمین",
        "id": 1219,
        "lat": 35.6573982,
        "long": 51.30419899
      },
      "شهرکنفتمنطقه1": {
        "name": "شهرک نفت - منطقه 1",
        "id": 1220,
        "lat": 35.80962743,
        "long": 51.51089019
      },
      "شهرکنفتمنطقه5": {
        "name": "شهرک نفت - منطقه 5",
        "id": 1221,
        "lat": 35.80962743,
        "long": 51.51089019
      },
      "شهرکهما": {
        "name": "شهرک هما",
        "id": 1222,
        "lat": 35.74889931,
        "long": 51.3369866
      },
      "شهرکوالفجرمنطقه6": {
        "name": "شهرک والفجر - منطقه 6",
        "id": 1223,
        "lat": 35.74572694,
        "long": 51.39212793
      },
      "شهرکولفجر": {
        "name": "شهرک ولفجر",
        "id": 1978,
        "lat": 35.74572694,
        "long": 51.39212793
      },
      "شهرکولیعصر": {
        "name": "شهرک ولیعصر",
        "id": 1224,
        "lat": 35.65233354,
        "long": 51.34026988
      },
      "شهریار": {
        "name": "شهریار",
        "id": 1225,
        "lat": 35.67494037,
        "long": 51.0244901
      },
      "شهیدآوینی": {
        "name": "شهید آوینی",
        "id": 1227,
        "lat": 35.70981966,
        "long": 51.11911121
      },
      "شهیداسدی": {
        "name": "شهید اسدی",
        "id": 1226,
        "lat": 35.78180583,
        "long": 51.34181537
      },
      "شهیدبروجردی": {
        "name": "شهید بروجردی",
        "id": 1228,
        "lat": 35.38029576,
        "long": 51.61514968
      },
      "شهیددستغیب": {
        "name": "شهید دستغیب",
        "id": 1229,
        "lat": 35.7260432,
        "long": 51.09923607
      },
      "شهیدرجایی": {
        "name": "شهید رجایی",
        "id": 1230,
        "lat": 35.75623918,
        "long": 51.12812744
      },
      "شوش": {
        "name": "شوش",
        "id": 1231,
        "lat": 35.65883908,
        "long": 51.44046117
      },
      "شیان": {
        "name": "شیان",
        "id": 1232,
        "lat": 35.77272735,
        "long": 51.49644276
      },
      "شیخبهائیجنوبی": {
        "name": "شیخ بهائی جنوبی",
        "id": 1966,
        "lat": 35.76629568,
        "long": 51.39525333
      },
      "شیخبهائیشمالی": {
        "name": "شیخ بهائی شمالی",
        "id": 1965,
        "lat": 35.76629568,
        "long": 51.39525333
      },
      "شیخهادی": {
        "name": "شیخ هادی",
        "id": 1233,
        "lat": 35.69522317,
        "long": 51.4074245
      },
      "شیرازجنوبی": {
        "name": "شیراز جنوبی",
        "id": 1968,
        "lat": 35.7498641,
        "long": 51.40102605
      },
      "شیرازشمالی": {
        "name": "شیراز شمالی",
        "id": 1967,
        "lat": 35.7498641,
        "long": 51.40102605
      },
      "شیرازی": {
        "name": "شیرازی",
        "id": 1234,
        "lat": 35.794473,
        "long": 51.45749394
      },
      "شیوا": {
        "name": "شیوا",
        "id": 1235,
        "lat": 35.69450363,
        "long": 51.39864569
      },
      "صاحبالزمان": {
        "name": "صاحب الزمان",
        "id": 1236,
        "lat": 35.74375799,
        "long": 51.32919788
      },
      "صادقیه": {
        "name": "صادقیه",
        "id": 1237,
        "lat": 35.72750303,
        "long": 51.34021402
      },
      "صالحآباد": {
        "name": "صالح آباد",
        "id": 1798,
        "lat": 35.5056088,
        "long": 51.19031308
      },
      "صالح‌آبادشرقی": {
        "name": "صالح‌آباد شرقی",
        "id": 1238,
        "lat": 35.5056088,
        "long": 51.19031308
      },
      "صددستگاه": {
        "name": "صد دستگاه",
        "id": 1239,
        "lat": 35.68073498,
        "long": 51.47620589
      },
      "صفا": {
        "name": "صفا",
        "id": 1240,
        "lat": 35.69582626,
        "long": 51.45123842
      },
      "صفائیه(چشمهعلی)": {
        "name": "صفائیه (چشمه علی)",
        "id": 1241,
        "lat": 35.60699937,
        "long": 51.44798724
      },
      "صوراسرافیل": {
        "name": "صوراسرافیل",
        "id": 1960,
        "lat": 35.68257587,
        "long": 51.42061841
      },
      "طالقانی": {
        "name": "طالقانی",
        "id": 1862,
        "lat": 35.70695473,
        "long": 51.4152978
      },
      "طرشت": {
        "name": "طرشت",
        "id": 1242,
        "lat": 35.70730332,
        "long": 51.3552644
      },
      "طوس": {
        "name": "طوس",
        "id": 1243,
        "lat": 35.68068808,
        "long": 51.45513567
      },
      "طیب": {
        "name": "طیب",
        "id": 1244,
        "lat": 35.6607872,
        "long": 51.4504444
      },
      "ظفر": {
        "name": "ظفر",
        "id": 1245,
        "lat": 35.75716206,
        "long": 51.25210983
      },
      "ظهیرآباد": {
        "name": "ظهیرآباد",
        "id": 1246,
        "lat": 35.59770682,
        "long": 51.44833479
      },
      "عارف": {
        "name": "عارف",
        "id": 1247,
        "lat": 35.66805279,
        "long": 51.45278868
      },
      "عباس‌آباد": {
        "name": "عباس‌آباد",
        "id": 1249,
        "lat": 35.7319056,
        "long": 51.42638712
      },
      "عباسآباد": {
        "name": "عباس آباد",
        "id": 1929,
        "lat": 35.7319056,
        "long": 51.42638712
      },
      "عباسآباداندیشه": {
        "name": "عباس آباد - اندیشه",
        "id": 1248,
        "lat": 35.7319056,
        "long": 51.42638712
      },
      "عباسی": {
        "name": "عباسی",
        "id": 1250,
        "lat": 35.66761898,
        "long": 51.38292097
      },
      "عبدالله‌آباد": {
        "name": "عبدالله‌آباد",
        "id": 1251,
        "lat": 35.621466,
        "long": 51.37799596
      },
      "عبدل‌آباد": {
        "name": "عبدل ‌آباد",
        "id": 1252,
        "lat": 35.621466,
        "long": 51.37799596
      },
      "علموصنعت": {
        "name": "علم و صنعت",
        "id": 1253,
        "lat": 35.74256977,
        "long": 51.5022567
      },
      "علی‌آباد": {
        "name": "علی‌ آباد",
        "id": 1254,
        "lat": 35.44600782,
        "long": 51.18236297
      },
      "علیآباد": {
        "name": "علی آباد",
        "id": 1990,
        "lat": 35.44600782,
        "long": 51.18236297
      },
      "علیآبادجنوبی": {
        "name": "علی آباد جنوبی",
        "id": 1255,
        "lat": 35.44600782,
        "long": 51.18236297
      },
      "فاطمی": {
        "name": "فاطمی",
        "id": 1256,
        "lat": 35.72024542,
        "long": 51.4056155
      },
      "فتح": {
        "name": "فتح",
        "id": 1257,
        "lat": 35.68958754,
        "long": 51.21836913
      },
      "فخرآباد": {
        "name": "فخر آباد",
        "id": 1984,
        "lat": 35.6987835,
        "long": 51.43800283
      },
      "فدائیاناسلام": {
        "name": "فدائیان اسلام",
        "id": 1783,
        "lat": 35.63976212,
        "long": 51.43492345
      },
      "فدک": {
        "name": "فدک",
        "id": 1258,
        "lat": 35.69724446,
        "long": 51.23535234
      },
      "فرحزاد": {
        "name": "فرحزاد",
        "id": 1259,
        "lat": 35.78747925,
        "long": 51.34430193
      },
      "فردوسی": {
        "name": "فردوسی",
        "id": 1260,
        "lat": 35.69364159,
        "long": 51.41998878
      },
      "فرصتشیرازی": {
        "name": "فرصت شیرازی",
        "id": 1878,
        "lat": 35.70278788,
        "long": 51.38459478
      },
      "فرمانیه": {
        "name": "فرمانیه",
        "id": 1261,
        "lat": 35.80332942,
        "long": 51.45989281
      },
      "فرودگاهمهرآباد": {
        "name": "فرودگاه مهرآباد",
        "id": 1262,
        "lat": 35.69672036,
        "long": 51.32015888
      },
      "فشم": {
        "name": "فشم",
        "id": 1263,
        "lat": 35.93908798,
        "long": 51.52564269
      },
      "فلاح": {
        "name": "فلاح",
        "id": 1264,
        "lat": 35.63358121,
        "long": 51.39734462
      },
      "فلسطینجنوبی": {
        "name": "فلسطین جنوبی",
        "id": 1859,
        "lat": 35.69692285,
        "long": 51.40209894
      },
      "فلسطینشمالی": {
        "name": "فلسطین شمالی",
        "id": 1858,
        "lat": 35.71206392,
        "long": 51.40439628
      },
      "فیروزآبادی": {
        "name": "فیروزآبادی",
        "id": 1265,
        "lat": 35.59463876,
        "long": 51.4365363
      },
      "فیروزکوه": {
        "name": "فیروزکوه",
        "id": 1266,
        "lat": 35.7600927,
        "long": 52.77218709
      },
      "قائممقام": {
        "name": "قائم مقام",
        "id": 1268,
        "lat": 35.72348433,
        "long": 51.42067315
      },
      "قاسم‌آباد": {
        "name": "قاسم‌ آباد",
        "id": 1267,
        "lat": 35.35088794,
        "long": 51.61939128
      },
      "قبا": {
        "name": "قبا",
        "id": 1269,
        "lat": 35.76138063,
        "long": 51.44957803
      },
      "قرچک": {
        "name": "قرچک",
        "id": 1270,
        "lat": 35.43670238,
        "long": 51.57600388
      },
      "قزلقلعه": {
        "name": "قزل قلعه",
        "id": 1271,
        "lat": 35.7291384,
        "long": 51.3948288
      },
      "قزوینامامزادهحسن": {
        "name": "قزوین - امامزاده حسن",
        "id": 1272,
        "lat": 35.67001989,
        "long": 51.35622577
      },
      "قصرالدشت": {
        "name": "قصرالدشت",
        "id": 1890,
        "lat": 35.69009238,
        "long": 51.37013221
      },
      "قصرحشمتیه": {
        "name": "قصر- حشمتیه",
        "id": 1273,
        "lat": 35.72230541,
        "long": 51.45806245
      },
      "قصرفیروزه1": {
        "name": "قصر فیروزه 1",
        "id": 1274,
        "lat": 35.67355632,
        "long": 51.49620288
      },
      "قصرفیروزه2": {
        "name": "قصر فیروزه 2",
        "id": 1275,
        "lat": 35.65281554,
        "long": 51.50644987
      },
      "قلعهحسنخان": {
        "name": "قلعه حسن خان",
        "id": 1802,
        "lat": 35.71654137,
        "long": 51.1156719
      },
      "قلعهمیر": {
        "name": "قلعه میر",
        "id": 1800,
        "lat": 35.50382675,
        "long": 51.15380271
      },
      "قلمستان": {
        "name": "قلمستان",
        "id": 1276,
        "lat": 35.79596437,
        "long": 50.99245183
      },
      "قلهک": {
        "name": "قلهک",
        "id": 1277,
        "lat": 35.77400557,
        "long": 51.44464544
      },
      "قنات‌کوثر": {
        "name": "قنات‌ کوثر",
        "id": 1278,
        "lat": 35.75983165,
        "long": 51.53130752
      },
      "قیام": {
        "name": "قیام",
        "id": 1279,
        "lat": 35.67189404,
        "long": 51.47685902
      },
      "قیام‌دشت": {
        "name": "قیام‌ دشت",
        "id": 1280,
        "lat": 35.5255358,
        "long": 51.65041912
      },
      "قیطریه": {
        "name": "قیطریه",
        "id": 1281,
        "lat": 35.79323369,
        "long": 51.44482684
      },
      "کاج": {
        "name": "کاج",
        "id": 1282,
        "lat": 35.78250639,
        "long": 51.37479727
      },
      "کارگرجنوبی": {
        "name": "کارگر جنوبی",
        "id": 1906,
        "lat": 35.6898849,
        "long": 51.39257604
      },
      "کارگرشمالی": {
        "name": "کارگر شمالی",
        "id": 1905,
        "lat": 35.72407003,
        "long": 51.38878525
      },
      "کارون": {
        "name": "کارون",
        "id": 1284,
        "lat": 35.69047901,
        "long": 51.36687881
      },
      "کاشانک": {
        "name": "کاشانک",
        "id": 1285,
        "lat": 35.80857176,
        "long": 51.48095247
      },
      "کاظم‌آباد": {
        "name": "کاظم‌ آباد",
        "id": 1286,
        "lat": 35.74919662,
        "long": 51.4665786
      },
      "کامرانیه": {
        "name": "کامرانیه",
        "id": 1287,
        "lat": 35.80686346,
        "long": 51.46240097
      },
      "کرمان": {
        "name": "کرمان",
        "id": 1288,
        "lat": 35.73161089,
        "long": 51.47017688
      },
      "کریم‌آباد": {
        "name": "کریم ‌آباد",
        "id": 1289,
        "lat": 35.3879646,
        "long": 51.80622339
      },
      "کریمخانزند": {
        "name": "کریم خان زند",
        "id": 1856,
        "lat": 35.71557199,
        "long": 51.41881972
      },
      "کفائیامامی": {
        "name": "کفائی امامی",
        "id": 1818,
        "lat": 35.69584891,
        "long": 51.44491602
      },
      "کلیمکاشانی": {
        "name": "کلیم کاشانی",
        "id": 1926,
        "lat": 35.71921364,
        "long": 51.44542324
      },
      "کن": {
        "name": "کن",
        "id": 1290,
        "lat": 35.75949613,
        "long": 51.27721135
      },
      "کوثر": {
        "name": "کوثر",
        "id": 1291,
        "lat": 35.6635287,
        "long": 51.43920059
      },
      "کوچهمهران": {
        "name": "کوچه مهران",
        "id": 1848,
        "lat": 35.6929034,
        "long": 51.42303931
      },
      "کوهساراستخر": {
        "name": "کوهسار - استخر",
        "id": 1292,
        "lat": 35.75525416,
        "long": 51.5623916
      },
      "کوهک": {
        "name": "کوهک",
        "id": 1293,
        "lat": 35.7452843,
        "long": 51.4864933
      },
      "کوهنور": {
        "name": "کوه نور",
        "id": 1979,
        "lat": 35.725986,
        "long": 51.4228552
      },
      "کویبیمه": {
        "name": "کوی بیمه",
        "id": 1294,
        "lat": 35.70474767,
        "long": 51.31874805
      },
      "کویفراز": {
        "name": "کوی فراز",
        "id": 1295,
        "lat": 35.78947557,
        "long": 51.37093688
      },
      "کویفردوس": {
        "name": "کوی فردوس",
        "id": 1296,
        "lat": 35.72749324,
        "long": 51.31844479
      },
      "کویمهران": {
        "name": "کوی مهران",
        "id": 1297,
        "lat": 35.75523627,
        "long": 51.31984725
      },
      "کوینوبنیاد": {
        "name": "کوی نوبنیاد",
        "id": 1298,
        "lat": 35.78363667,
        "long": 51.48634393
      },
      "کویهفدهمشهریور": {
        "name": "کوی هفدهم شهریور",
        "id": 1299,
        "lat": 35.67392828,
        "long": 51.44598164
      },
      "کیانشهر": {
        "name": "کیانشهر",
        "id": 1300,
        "lat": 35.63377229,
        "long": 51.45436039
      },
      "گاندی": {
        "name": "گاندی",
        "id": 1809,
        "lat": 35.75246124,
        "long": 51.41246024
      },
      "گرگان": {
        "name": "گرگان",
        "id": 1983,
        "lat": 35.7085813,
        "long": 51.4469967
      },
      "گلابدره": {
        "name": "گلاب دره",
        "id": 1303,
        "lat": 35.819583,
        "long": 51.43662562
      },
      "گلچین": {
        "name": "گلچین",
        "id": 1304,
        "lat": 35.71630135,
        "long": 51.34161944
      },
      "گلستان": {
        "name": "گلستان",
        "id": 1799,
        "lat": 35.77062571,
        "long": 51.46550728
      },
      "گمرک": {
        "name": "گمرک",
        "id": 1305,
        "lat": 35.66718035,
        "long": 51.39464376
      },
      "گیشا": {
        "name": "گیشا",
        "id": 1306,
        "lat": 35.7343437,
        "long": 51.37619572
      },
      "لالهزار": {
        "name": "لاله زار",
        "id": 1826,
        "lat": 35.69393274,
        "long": 51.42310014
      },
      "لالهزارجنوبی": {
        "name": "لاله زار جنوبی",
        "id": 1849,
        "lat": 35.69393274,
        "long": 51.42310014
      },
      "لالهزارنو": {
        "name": "لاله زار نو",
        "id": 1850,
        "lat": 35.69393274,
        "long": 51.42310014
      },
      "لشگر": {
        "name": "لشگر",
        "id": 1307,
        "lat": 35.72265504,
        "long": 51.46816917
      },
      "لواسان": {
        "name": "لواسان",
        "id": 1308,
        "lat": 35.81962741,
        "long": 51.630322
      },
      "لویزانشیان": {
        "name": "لویزان - شیان",
        "id": 1309,
        "lat": 35.77624746,
        "long": 51.50124509
      },
      "مبارک‌آبادبهشتی": {
        "name": "مبارک ‌آباد بهشتی",
        "id": 1310,
        "lat": 35.76629155,
        "long": 51.47739393
      },
      "مجیدآباد": {
        "name": "مجیدآباد",
        "id": 1311,
        "lat": 35.76178164,
        "long": 51.54349546
      },
      "مجیدیه": {
        "name": "مجیدیه",
        "id": 1312,
        "lat": 35.736817,
        "long": 51.46865131
      },
      "محمودیه": {
        "name": "محمودیه",
        "id": 1313,
        "lat": 35.79502305,
        "long": 51.41176341
      },
      "مخبرالدوله": {
        "name": "مخبرالدوله",
        "id": 1808,
        "lat": 35.69290026,
        "long": 51.42566715
      },
      "مخصوص": {
        "name": "مخصوص",
        "id": 1314,
        "lat": 35.67873795,
        "long": 51.38942951
      },
      "مدائن": {
        "name": "مدائن",
        "id": 1315,
        "lat": 35.73301002,
        "long": 51.4965629
      },
      "مدرس": {
        "name": "مدرس",
        "id": 1975,
        "lat": 35.75435385,
        "long": 51.42082687
      },
      "مرادآباد": {
        "name": "مرادآباد",
        "id": 1316,
        "lat": 35.54937329,
        "long": 51.32363197
      },
      "مرتضوی": {
        "name": "مرتضوی",
        "id": 1889,
        "lat": 35.58970487,
        "long": 51.43269765
      },
      "مرزداران": {
        "name": "مرزداران",
        "id": 1317,
        "lat": 35.73464937,
        "long": 51.35219494
      },
      "مسعودیه": {
        "name": "مسعودیه",
        "id": 1318,
        "lat": 35.62803929,
        "long": 51.5001994
      },
      "مسگرآباد": {
        "name": "مسگرآباد",
        "id": 1319,
        "lat": 35.62915097,
        "long": 51.51728514
      },
      "مشیریه": {
        "name": "مشیریه",
        "id": 1320,
        "lat": 35.62180416,
        "long": 51.48445732
      },
      "مطهری": {
        "name": "مطهری",
        "id": 1920,
        "lat": 35.72406553,
        "long": 51.41934543
      },
      "مفتح": {
        "name": "مفتح",
        "id": 1846,
        "lat": 35.72437909,
        "long": 51.42651229
      },
      "مقدم": {
        "name": "مقدم",
        "id": 1321,
        "lat": 35.75359925,
        "long": 51.36200987
      },
      "ملاصدرا": {
        "name": "ملاصدرا",
        "id": 1811,
        "lat": 35.75717993,
        "long": 51.40518246
      },
      "ملک‌آباد": {
        "name": "ملک ‌آباد",
        "id": 1322,
        "lat": 35.62114576,
        "long": 51.43255637
      },
      "منتظری": {
        "name": "منتظری",
        "id": 1815,
        "lat": 35.60547644,
        "long": 51.4302743
      },
      "منصوریهپلسیمان": {
        "name": "منصوریه - پل سیمان",
        "id": 1323,
        "lat": 35.61035351,
        "long": 51.43834905
      },
      "منوچهری": {
        "name": "منوچهری",
        "id": 1851,
        "lat": 35.73277182,
        "long": 51.28943738
      },
      "منیریه": {
        "name": "منیریه",
        "id": 1324,
        "lat": 35.68465748,
        "long": 51.40092004
      },
      "مهرآبادجنوبی": {
        "name": "مهرآباد جنوبی",
        "id": 1327,
        "lat": 35.67232775,
        "long": 51.33367072
      },
      "مهرانمنطقه4": {
        "name": "مهران - منطقه 4",
        "id": 1325,
        "lat": 35.74858707,
        "long": 51.45721929
      },
      "مهرانمنطقه5": {
        "name": "مهران - منطقه 5",
        "id": 1326,
        "lat": 35.73039039,
        "long": 51.31476193
      },
      "موسیآباد": {
        "name": "موسی آباد",
        "id": 1793,
        "lat": 35.36988342,
        "long": 51.61249284
      },
      "مولوی": {
        "name": "مولوی",
        "id": 1912,
        "lat": 35.66446117,
        "long": 51.42391198
      },
      "میدانآرژانتین": {
        "name": "میدان آرژانتین",
        "id": 1936,
        "lat": 35.73702284,
        "long": 51.41562347
      },
      "میدانامامخمینی": {
        "name": "میدان امام خمینی",
        "id": 1805,
        "lat": 35.68573981,
        "long": 51.42126155
      },
      "میدانانقلاب": {
        "name": "میدان انقلاب",
        "id": 1329,
        "lat": 35.70159794,
        "long": 51.39086175
      },
      "میدانبهمن": {
        "name": "میدان بهمن",
        "id": 1985,
        "lat": 35.64948681,
        "long": 51.39813065
      },
      "میدانپالیزی": {
        "name": "میدان پالیزی",
        "id": 1948,
        "lat": 35.73945219,
        "long": 51.44408767
      },
      "میدانتجریش": {
        "name": "میدان تجریش",
        "id": 1974,
        "lat": 35.80700504,
        "long": 51.42881111
      },
      "میدانتوحید": {
        "name": "میدان توحید",
        "id": 1880,
        "lat": 35.7065421,
        "long": 51.37743468
      },
      "میدانجهاد": {
        "name": "میدان جهاد",
        "id": 1874,
        "lat": 35.72077809,
        "long": 51.40820567
      },
      "میدانحر": {
        "name": "میدان حر",
        "id": 1940,
        "lat": 35.68665891,
        "long": 51.38794895
      },
      "میدانرازی": {
        "name": "میدان رازی",
        "id": 1915,
        "lat": 35.66693576,
        "long": 51.39607575
      },
      "میدانشپاه": {
        "name": "میدان شپاه",
        "id": 1832,
        "lat": 35.70673328,
        "long": 51.44067617
      },
      "میدانشیخبهائی": {
        "name": "میدان شیخ بهائی",
        "id": 1970,
        "lat": 35.76611531,
        "long": 51.39493661
      },
      "میدانشیراز": {
        "name": "میدان شیراز",
        "id": 1969,
        "lat": 35.63098995,
        "long": 51.49780082
      },
      "میدانفاطمی": {
        "name": "میدان فاطمی",
        "id": 1873,
        "lat": 35.72028026,
        "long": 51.40560477
      },
      "میدانفردوسی": {
        "name": "میدان فردوسی",
        "id": 1804,
        "lat": 35.70194886,
        "long": 51.41909777
      },
      "میدانقزوین": {
        "name": "میدان قزوین",
        "id": 1914,
        "lat": 35.67563757,
        "long": 51.39485485
      },
      "میدانگلها": {
        "name": "میدان گلها",
        "id": 1955,
        "lat": 35.72288414,
        "long": 51.40062511
      },
      "میدانمحمدیه": {
        "name": "میدان محمدیه",
        "id": 1910,
        "lat": 35.668204,
        "long": 51.41613588
      },
      "میدانهفتتیر": {
        "name": "میدان هفت تیر",
        "id": 1847,
        "lat": 35.55702826,
        "long": 51.16881544
      },
      "میدانولیعصر": {
        "name": "میدان ولیعصر",
        "id": 1872,
        "lat": 35.71178305,
        "long": 51.4074772
      },
      "میرداماد": {
        "name": "میرداماد",
        "id": 1964,
        "lat": 35.76098724,
        "long": 51.42823641
      },
      "میرزاکوچکخان": {
        "name": "میرزاکوچک خان",
        "id": 1963,
        "lat": 36.29090909,
        "long": 59.64037638
      },
      "میرزایشیرازی": {
        "name": "میرزای شیرازی",
        "id": 1333,
        "lat": 35.72209012,
        "long": 51.41586411
      },
      "مینا": {
        "name": "مینا",
        "id": 1334,
        "lat": 35.78298996,
        "long": 51.42741283
      },
      "مینابی": {
        "name": "مینابی",
        "id": 1335,
        "lat": 35.65290185,
        "long": 51.45720356
      },
      "نارمک": {
        "name": "نارمک",
        "id": 1336,
        "lat": 35.73711752,
        "long": 51.50461576
      },
      "نارمکجنوبی": {
        "name": "نارمک جنوبی",
        "id": 1337,
        "lat": 35.73711752,
        "long": 51.50461576
      },
      "نازی‌آباد": {
        "name": "نازی‌ آباد",
        "id": 1338,
        "lat": 35.64312999,
        "long": 51.40282139
      },
      "ناصرخسرو": {
        "name": "ناصرخسرو",
        "id": 1838,
        "lat": 35.68152139,
        "long": 51.42258138
      },
      "ناطقی": {
        "name": "ناطقی",
        "id": 1817,
        "lat": 35.74389363,
        "long": 51.48868253
      },
      "نامجو": {
        "name": "نامجو",
        "id": 1923,
        "lat": 35.70842549,
        "long": 51.44815751
      },
      "نبیاکرم(ص)": {
        "name": "نبی اکرم(ص)",
        "id": 1339,
        "lat": 35.71057227,
        "long": 51.27385893
      },
      "نجاتاللهی": {
        "name": "نجات اللهی",
        "id": 1340,
        "lat": 35.70851344,
        "long": 51.41528773
      },
      "نجاتالهی": {
        "name": "نجات الهی",
        "id": 1842,
        "lat": 35.70851344,
        "long": 51.41528773
      },
      "نسیمشهر": {
        "name": "نسیم شهر",
        "id": 1796,
        "lat": 35.56672142,
        "long": 51.15779384
      },
      "نصرت": {
        "name": "نصرت",
        "id": 1341,
        "lat": 35.70567851,
        "long": 51.37260945
      },
      "نصیرآباد": {
        "name": "نصیرآباد",
        "id": 1797,
        "lat": 35.60221012,
        "long": 51.2186381
      },
      "نظام‌آباد": {
        "name": "نظام‌ آباد",
        "id": 1342,
        "lat": 35.70828095,
        "long": 51.45512608
      },
      "نعمت‌آباد": {
        "name": "نعمت ‌آباد",
        "id": 1343,
        "lat": 35.63179322,
        "long": 51.35465739
      },
      "نلسونماندلا": {
        "name": "نلسون ماندلا",
        "id": 1869,
        "lat": 35.76223322,
        "long": 51.41846902
      },
      "نواب": {
        "name": "نواب",
        "id": 1344,
        "lat": 35.6946982,
        "long": 51.37870908
      },
      "نوفللوشاتو": {
        "name": "نوفل لوشاتو",
        "id": 1852,
        "lat": 35.69733353,
        "long": 51.41176079
      },
      "نیاوران": {
        "name": "نیاوران",
        "id": 1345,
        "lat": 35.81623915,
        "long": 51.46925169
      },
      "نیایش": {
        "name": "نیایش",
        "id": 1992,
        "lat": 35.77683948,
        "long": 51.3739854
      },
      "نیرویدریایی": {
        "name": "نیروی دریایی",
        "id": 1347,
        "lat": 35.74498287,
        "long": 51.48954513
      },
      "نیرویهوایی": {
        "name": "نیروی هوایی",
        "id": 1346,
        "lat": 35.70239499,
        "long": 51.47416041
      },
      "نیلوفر": {
        "name": "نیلوفر",
        "id": 1348,
        "lat": 35.72321513,
        "long": 51.39506158
      },
      "هاشم‌آباد": {
        "name": "هاشم ‌آباد",
        "id": 1349,
        "lat": 35.64350345,
        "long": 51.47148758
      },
      "هاشمی": {
        "name": "هاشمی",
        "id": 1350,
        "lat": 35.72663858,
        "long": 51.48269824
      },
      "هاشمیرفسنجانی": {
        "name": "هاشمی رفسنجانی",
        "id": 1994,
        "lat": 35.77645649,
        "long": 51.37410341
      },
      "هروی": {
        "name": "هروی",
        "id": 1351,
        "lat": 35.76751132,
        "long": 51.47630462
      },
      "هزارسنگ": {
        "name": "هزارسنگ",
        "id": 1352,
        "lat": 35.70739361,
        "long": 51.38767678
      },
      "هفتچنار": {
        "name": "هفت چنار",
        "id": 1353,
        "lat": 35.67581584,
        "long": 51.37172412
      },
      "هفتحوض": {
        "name": "هفت حوض",
        "id": 1354,
        "lat": 35.73019401,
        "long": 51.49330233
      },
      "هوانیروز": {
        "name": "هوانیروز",
        "id": 1355,
        "lat": 35.78439389,
        "long": 51.5094376
      },
      "وحیدیه": {
        "name": "وحیدیه",
        "id": 1356,
        "lat": 35.71524437,
        "long": 51.47032822
      },
      "ورامین": {
        "name": "ورامین",
        "id": 1357,
        "lat": 35.34711296,
        "long": 51.64097703
      },
      "وردآورد": {
        "name": "وردآورد",
        "id": 1358,
        "lat": 35.7393623,
        "long": 51.13221084
      },
      "وزراء": {
        "name": "وزراء",
        "id": 1934,
        "lat": 35.73754116,
        "long": 51.41255137
      },
      "وصالشیرازی": {
        "name": "وصال شیرازی",
        "id": 1877,
        "lat": 35.70373029,
        "long": 51.39932622
      },
      "وصفنارد": {
        "name": "وصفنارد",
        "id": 1359,
        "lat": 35.64681427,
        "long": 51.35151154
      },
      "ولعصر": {
        "name": "ولعصر",
        "id": 1959,
        "lat": 35.70215628,
        "long": 51.38544376
      },
      "ولنجک": {
        "name": "ولنجک",
        "id": 1360,
        "lat": 35.80555114,
        "long": 51.40230111
      },
      "ولیعصرطالقانی": {
        "name": "ولیعصر - طالقانی",
        "id": 1361,
        "lat": 35.70659858,
        "long": 51.40608835
      },
      "ونک": {
        "name": "ونک",
        "id": 1362,
        "lat": 35.76338714,
        "long": 51.39287279
      },
      "یاخچی‌آباد": {
        "name": "یاخچی ‌آباد",
        "id": 1363,
        "lat": 35.62838685,
        "long": 51.40261459
      },
      "یافتآبادبازارمبل": {
        "name": "یافت آباد - بازار مبل",
        "id": 1364,
        "lat": 35.66197238,
        "long": 51.34679286
      },
      "یافتآبادتهرانیه": {
        "name": "یافت آباد - تهرانیه",
        "id": 1365,
        "lat": 35.66197238,
        "long": 51.34679286
      },
      "یوسف‌آباد": {
        "name": "یوسف‌ آباد",
        "id": 1366,
        "lat": 35.73390421,
        "long": 51.40396695
      },
      "یوسفآباد": {
        "name": "یوسف آباد",
        "id": 1953,
        "lat": 35.73390421,
        "long": 51.40396695
      },
      "احتشامیه": {
        "name": "احتشامیه",
        "id": 2006,
        "lat": 35.77760299,
        "long": 51.45683171
      },
      "انقلاب": {
        "name": "انقلاب",
        "id": 2008,
        "lat": 35.698519,
        "long": 51.3983
      },
      "باغصبا": {
        "name": "باغ صبا",
        "id": 2009,
        "lat": 35.720965,
        "long": 51.434774
      },
      "تهرانسرمنطقه2": {
        "name": "تهرانسر - منطقه 2",
        "id": 2010,
        "lat": 35.70886935,
        "long": 51.36862877
      },
      "شهرکمصطفیخمینی": {
        "name": "شهرک مصطفی خمینی",
        "id": 2011,
        "lat": 35.60511243,
        "long": 51.34427284
      },
      "شهرکمرتضیگرد": {
        "name": "شهرک مرتضی گرد",
        "id": 2012,
        "lat": 35.60270483,
        "long": 51.34847854
      },
      "صاحبقرانیه": {
        "name": "صاحبقرانیه",
        "id": 2013,
        "lat": 35.80701698,
        "long": 51.47449388
      },
      "کمیل": {
        "name": "کمیل",
        "id": 2014,
        "lat": 35.68105657,
        "long": 51.3688472
      }
    }
  },
  "شیراز": {
    "id": 8,
    "name": "شیراز",
    "lat": "۲۹.۵۹۲۶۰۰۰۰",
    "long": "۲۹.۵۹۲۶۰۰۰۰",
    "parent_id": 213,
    "ostan": "استان-فارس",
    "areas": {
      "آرین": {
        "name": "آرین",
        "id": 1475,
        "lat": 29.71658429,
        "long": 52.4595827
      },
      "ابوذر": {
        "name": "ابوذر",
        "id": 1477,
        "lat": 29.578177112473075,
        "long": 52.55387201413708
      },
      "ابیوردی": {
        "name": "ابیوردی",
        "id": 1478,
        "lat": 29.63794439,
        "long": 52.51428917
      },
      "احمدآباد": {
        "name": "احمدآباد",
        "id": 1480,
        "lat": 29.5981124,
        "long": 52.46308278
      },
      "ارم": {
        "name": "ارم",
        "id": 1481,
        "lat": 29.63370768,
        "long": 52.5298289
      },
      "انجیره": {
        "name": "انجیره",
        "id": 1483,
        "lat": 29.73465945,
        "long": 52.45630274
      },
      "شهرکایثار": {
        "name": "شهرک ایثار",
        "id": 1484,
        "lat": 29.61912809,
        "long": 52.47861984
      },
      "شهرکباهنر": {
        "name": "شهرک باهنر",
        "id": 1486,
        "lat": 29.59591844,
        "long": 52.47706739
      },
      "بلوارپودنک": {
        "name": "بلوار پودنک",
        "id": 1488,
        "lat": 29.58527194,
        "long": 52.6037943
      },
      "شهرکحجتآباد": {
        "name": "شهرک حجت آباد ",
        "id": 1489,
        "lat": 29.55829256,
        "long": 52.51888479
      },
      "پردیسارم": {
        "name": "پردیس ارم",
        "id": 1491,
        "lat": 29.64782011,
        "long": 52.51692044
      },
      "پزشکان": {
        "name": "پزشکان",
        "id": 1493,
        "lat": 29.676712239454815,
        "long": 52.46042779492268
      },
      "ترکان": {
        "name": "ترکان",
        "id": 1495,
        "lat": 29.56121927,
        "long": 52.62972469
      },
      "تلخداش": {
        "name": "تلخ داش",
        "id": 1496,
        "lat": 29.63024636287843,
        "long": 52.48821673252401
      },
      "چوگیاه": {
        "name": "چوگیاه",
        "id": 1498,
        "lat": 29.64360668,
        "long": 52.50715918
      },
      "حافظیه": {
        "name": "حافظیه",
        "id": 1499,
        "lat": 29.62336278,
        "long": 52.55667154
      },
      "خاتونجدید": {
        "name": "خاتون جدید",
        "id": 1502,
        "lat": 29.592163965679624,
        "long": 52.55032502894807
      },
      "خلدبرین": {
        "name": "خلدبرین",
        "id": 1503,
        "lat": 29.62299609,
        "long": 52.51325324
      },
      "درکی": {
        "name": "درکی",
        "id": 1504,
        "lat": 29.60165973,
        "long": 52.50936737
      },
      "دهپیاله": {
        "name": "ده پیاله",
        "id": 1506,
        "lat": 29.56810816,
        "long": 52.55969185
      },
      "ریاستی": {
        "name": "ریاستی",
        "id": 1508,
        "lat": 29.60399851,
        "long": 52.58693745
      },
      "شهرکرضوان": {
        "name": "شهرک رضوان",
        "id": 1509,
        "lat": 29.58153362,
        "long": 52.48524393
      },
      "کویزهرا": {
        "name": "کوی زهرا",
        "id": 1511,
        "lat": 29.59054095,
        "long": 52.56841531
      },
      "زیباشهر": {
        "name": "زیباشهر",
        "id": 1512,
        "lat": 29.659237,
        "long": 52.56223527
      },
      "ستارخان": {
        "name": "ستارخان",
        "id": 1514,
        "lat": 29.63097568,
        "long": 52.4971819
      },
      "سنگآباد": { "name": "سنگ آباد", "id": 1518, "lat": 0, "long": 0 },
      "شریفآباد": {
        "name": "شریف آباد",
        "id": 1520,
        "lat": 29.57354635,
        "long": 52.610139
      },
      "شهرکپردیس": {
        "name": "شهرک پردیس",
        "id": 1522,
        "lat": 29.70836256,
        "long": 52.47996577
      },
      "شهرکحافظ": {
        "name": "شهرک حافظ",
        "id": 1523,
        "lat": 29.72564375968333,
        "long": 52.437418397967626
      },
      "شهرکصنعتی": {
        "name": "شهرک صنعتی",
        "id": 1525,
        "lat": 29.49347955,
        "long": 52.53700866
      },
      "شهرکمدرس": {
        "name": "شهرک مدرس",
        "id": 1527,
        "lat": 29.56912974,
        "long": 52.50924349
      },
      "عادلآباد": {
        "name": "عادل آباد",
        "id": 1528,
        "lat": 29.58183968,
        "long": 52.50659587
      },
      "فخرآباد": {
        "name": "فخرآباد",
        "id": 1530,
        "lat": 29.60960633760991,
        "long": 52.52839862399985
      },
      "فرگاز": {
        "name": "فرگاز",
        "id": 1531,
        "lat": 29.58481683,
        "long": 52.50377279
      },
      "شهرکفرهنگیان": {
        "name": "شهرک فرهنگیان",
        "id": 1533,
        "lat": 29.59104338,
        "long": 52.46912446
      },
      "قصرقمشه": {
        "name": "قصر قمشه",
        "id": 1534,
        "lat": 29.77726582,
        "long": 52.44394544
      },
      "کوشکک": {
        "name": "کوشکک",
        "id": 1536,
        "lat": 29.56122043,
        "long": 52.65864602
      },
      "کویولیعصر": {
        "name": "کوی ولیعصر",
        "id": 1538,
        "lat": 29.61282639,
        "long": 52.49823808
      },
      "گلدشت": {
        "name": "گلدشت",
        "id": 1539,
        "lat": 29.68582907,
        "long": 52.45687366
      },
      "لاله": {
        "name": "لاله",
        "id": 1541,
        "lat": 29.59991753,
        "long": 52.5181652
      },
      "شهرکمطهری": {
        "name": "شهرک مطهری",
        "id": 1542,
        "lat": 29.57546136,
        "long": 52.52362566
      },
      "منوچهری": {
        "name": "منوچهری",
        "id": 1545,
        "lat": 29.614653491072595,
        "long": 52.53009012637016
      },
      "مهدیآبادمنطقه1": {
        "name": "مهدی آباد - منطقه 1",
        "id": 1546,
        "lat": 29.643782605138473,
        "long": 52.47862236062476
      },
      "میانرود": {
        "name": "میانرود",
        "id": 1547,
        "lat": 29.5681457,
        "long": 52.48616359
      },
      "نمازی": {
        "name": "نمازی",
        "id": 1549,
        "lat": 29.631330146050722,
        "long": 52.51985531805705
      },
      "نیایش": {
        "name": "نیایش",
        "id": 1551,
        "lat": 29.66531708,
        "long": 52.49378738
      },
      "هدایت": {
        "name": "هدایت",
        "id": 1552,
        "lat": 29.624816119666004,
        "long": 52.52298801503853
      },
      "شهرکوالفجر": {
        "name": "شهرک والفجر",
        "id": 1554,
        "lat": 29.60386157,
        "long": 52.46379823
      },
      "وزیرآباد": {
        "name": "وزیرآباد",
        "id": 1555,
        "lat": 29.5391156,
        "long": 52.61937437
      },
      "آزادگان": {
        "name": "آزادگان",
        "id": 1476,
        "lat": 29.5929224,
        "long": 52.5792566
      },
      "احمدآبادمنطقه7": {
        "name": "احمد آباد - منطقه 7",
        "id": 1479,
        "lat": 29.55297544813176,
        "long": 52.60588265533172
      },
      "باغتخت": {
        "name": "باغ تخت",
        "id": 1485,
        "lat": 29.63436139,
        "long": 52.54315488
      },
      "شهرکبزین": {
        "name": "شهرک بزین",
        "id": 1487,
        "lat": 29.74194456,
        "long": 52.42768059
      },
      "پانصدستگاه": {
        "name": "پانصد ستگاه",
        "id": 1490,
        "lat": 29.59083814,
        "long": 52.52664664
      },
      "شهرکپرواز": {
        "name": "شهرک پرواز",
        "id": 1492,
        "lat": 29.58886399,
        "long": 52.58985305
      },
      "تاچارا": {
        "name": "تاچارا",
        "id": 1494,
        "lat": 29.69335113,
        "long": 52.46978237
      },
      "تندگویان": {
        "name": "تندگویان",
        "id": 1497,
        "lat": 29.590842618205244,
        "long": 52.516330535645025
      },
      "حسینآباد": {
        "name": "حسین آباد ",
        "id": 1501,
        "lat": 29.707846744159482,
        "long": 52.457871433802474
      },
      "دشتچنار": {
        "name": "دشت چنار",
        "id": 1505,
        "lat": 29.567984574414574,
        "long": 52.5752201736945
      },
      "دوکوهک": {
        "name": "دوکوهک",
        "id": 1507,
        "lat": 29.7936669,
        "long": 52.41388053
      },
      "ستاد": {
        "name": "ستاد",
        "id": 1513,
        "lat": 29.62381200358179,
        "long": 52.53167788423335
      },
      "شهرکسراج": {
        "name": "شهرک سراج",
        "id": 1515,
        "lat": 29.59414845587848,
        "long": 52.48830181909512
      },
      "دزک": {
        "name": "دزک",
        "id": 1516,
        "lat": 29.608585986073365,
        "long": 52.54310741285477
      },
      "سعدیه": {
        "name": "سعدیه",
        "id": 1517,
        "lat": 29.62243852250581,
        "long": 52.58316816817749
      },
      "سیاحتگر": {
        "name": "سیاحت گر",
        "id": 1519,
        "lat": 29.60999232656224,
        "long": 52.51341996817715
      },
      "شهرکامیرکبیر": {
        "name": "شهرک امیرکبیر",
        "id": 1521,
        "lat": 29.621006776406496,
        "long": 52.456334633149886
      },
      "شهرکصنعتیدستغیب": {
        "name": "شهرک صنعتی دستغیب",
        "id": 1524,
        "lat": 29.552236852281972,
        "long": 52.557367372905944
      },
      "شهرکگلشنمنطقه3": {
        "name": "شهرک گلشن - منطقه 3",
        "id": 1526,
        "lat": 29.62537566,
        "long": 52.46534053
      },
      "عفیفآباد": {
        "name": "عفیف آباد",
        "id": 1529,
        "lat": 29.6272581,
        "long": 52.50593745
      },
      "فرهنگشهر": {
        "name": "فرهنگ شهر",
        "id": 1532,
        "lat": 29.6713271,
        "long": 52.45394486
      },
      "کاراندیش": { "name": "کاراندیش", "id": 1535, "lat": 0, "long": 0 },
      "کویطلاب": {
        "name": "کوی طلاب",
        "id": 1537,
        "lat": 29.59880255,
        "long": 52.58568261
      },
      "شهرکگلستان": {
        "name": "شهرک گلستان",
        "id": 1540,
        "lat": 29.75393828,
        "long": 52.41068887
      },
      "معالیآباد": {
        "name": "معالی آباد",
        "id": 1543,
        "lat": 29.68180244,
        "long": 52.46614337
      },
      "منطقههواییدوران": {
        "name": "منطقه هوایی دوران",
        "id": 1544,
        "lat": 29.56020516,
        "long": 52.58241189
      },
      "نصرآباد": {
        "name": "نصرآباد",
        "id": 1548,
        "lat": 29.58263961,
        "long": 52.65179217
      },
      "نوابصفوی": {
        "name": "نواب صفوی",
        "id": 1550,
        "lat": 29.56926613,
        "long": 52.53831749
      },
      "هفتتنان": {
        "name": "هفت تنان",
        "id": 1553,
        "lat": 29.62743499,
        "long": 52.56711714
      },
      "شهرکولیعصر": {
        "name": "شهرک ولیعصر",
        "id": 1556,
        "lat": 29.57731916,
        "long": 52.57038653
      },
      "کویدانشگاه": {
        "name": "کوی دانشگاه",
        "id": 1557,
        "lat": 29.63843723,
        "long": 52.51788575
      },
      "ملاصدرا": {
        "name": "ملاصدرا ",
        "id": 1558,
        "lat": 29.62761388,
        "long": 52.51868519
      },
      "گویم": {
        "name": "گویم ",
        "id": 1560,
        "lat": 29.82562016,
        "long": 52.395698
      },
      "شهرکگلدشتحافظ": {
        "name": "شهرک گلدشت حافظ ",
        "id": 1563,
        "lat": 29.73399369,
        "long": 52.42919424
      },
      "شهرکرکنآباد": {
        "name": "شهرک رکن آباد ",
        "id": 1564,
        "lat": 29.68149792,
        "long": 52.54509544
      },
      "شهرکبهشتی": {
        "name": "شهرک بهشتی ",
        "id": 1565,
        "lat": 29.72234265,
        "long": 52.43975074
      },
      "دروازهکازرون": {
        "name": "دروازه کازرون ",
        "id": 1567,
        "lat": 29.60913296,
        "long": 52.53222228
      },
      "چنچنه": {
        "name": "چنچنه ",
        "id": 1570,
        "lat": 29.63786054,
        "long": 52.53177152
      },
      "زرهی": {
        "name": "زرهی ",
        "id": 1572,
        "lat": 29.61749774,
        "long": 52.49631698
      },
      "زرگری": {
        "name": "زرگری ",
        "id": 1573,
        "lat": 29.63585491,
        "long": 52.49798414
      },
      "دینکان": {
        "name": "دینکان ",
        "id": 1574,
        "lat": 29.70035928,
        "long": 52.47524638
      },
      "سینماسعدی": {
        "name": "سینما سعدی ",
        "id": 1576,
        "lat": 29.62197341,
        "long": 52.52311725
      }
    }
  },
  "اصفهان": {
    "id": 9,
    "name": "اصفهان",
    "lat": "۳۲.۶۵۳۹۰۰۰۰",
    "long": "۵۱.۶۶۶۰۰۰۰۰",
    "parent_id": 214,
    "ostan": "استان-اصفهان",
    "areas": {
      "آبشار": {
        "name": "آبشار",
        "id": 670,
        "lat": 32.62821426,
        "long": 51.7093386
      },
      "آپادانا": {
        "name": "آپادانا",
        "id": 671,
        "lat": 32.63290593,
        "long": 51.69331032
      },
      "آزادگان": {
        "name": "آزادگان",
        "id": 673,
        "lat": 32.73062228,
        "long": 51.64668066
      },
      "آیینهخانه": {
        "name": "آیینه خانه",
        "id": 675,
        "lat": 32.63605406,
        "long": 51.67843809
      },
      "احمدآباد": {
        "name": "احمدآباد",
        "id": 677,
        "lat": 32.66433734,
        "long": 51.69707153
      },
      "امیریه": {
        "name": "امیریه",
        "id": 679,
        "lat": 32.61017173,
        "long": 51.60817421
      },
      "بابوکان": {
        "name": "بابوکان",
        "id": 680,
        "lat": 32.70714519,
        "long": 51.59273412
      },
      "بازوگاه": {
        "name": "بازوگاه",
        "id": 682,
        "lat": 32.66060315,
        "long": 51.63471908
      },
      "باغغدیر": {
        "name": "باغ غدیر",
        "id": 684,
        "lat": 32.64434501,
        "long": 51.7162553
      },
      "باغکاران": {
        "name": "باغ کاران",
        "id": 685,
        "lat": 32.64283941,
        "long": 51.6929529
      },
      "برزان": {
        "name": "برزان",
        "id": 687,
        "lat": 32.6750804,
        "long": 51.63838138
      },
      "بهاران": {
        "name": "بهاران",
        "id": 689,
        "lat": 32.65100453,
        "long": 51.72494248
      },
      "بهشتآتشگاه": {
        "name": "بهشت - آتشگاه",
        "id": 690,
        "lat": 32.65420419,
        "long": 51.60554935
      },
      "بیسیم": {
        "name": "بیسیم",
        "id": 692,
        "lat": 32.65330043,
        "long": 51.70840149
      },
      "پاییندروازه": {
        "name": "پایین دروازه",
        "id": 694,
        "lat": 32.66745918,
        "long": 51.69856823
      },
      "تالار": {
        "name": "تالار",
        "id": 695,
        "lat": 32.67165602,
        "long": 51.72297039
      },
      "تیران": {
        "name": "تیران",
        "id": 697,
        "lat": 32.68469196,
        "long": 51.66483761
      },
      "جاوان": {
        "name": "جاوان",
        "id": 699,
        "lat": 32.66721917,
        "long": 51.6382757
      },
      "جروکان": {
        "name": "جروکان",
        "id": 700,
        "lat": 32.65511819,
        "long": 51.57991356
      },
      "جوباره": {
        "name": "جوباره",
        "id": 701,
        "lat": 32.66971689,
        "long": 51.69315283
      },
      "چرخاب": {
        "name": "چرخاب",
        "id": 703,
        "lat": 32.64747553,
        "long": 51.67153061
      },
      "حسینآباد": {
        "name": "حسین آباد",
        "id": 704,
        "lat": 32.6258549,
        "long": 51.64529316
      },
      "خواجو": {
        "name": "خواجو",
        "id": 706,
        "lat": 32.64406405,
        "long": 51.68596827
      },
      "خیام": {
        "name": "خیام",
        "id": 708,
        "lat": 32.6438997,
        "long": 51.64362735
      },
      "دستگرده": {
        "name": "دستگرده",
        "id": 710,
        "lat": 32.68072135,
        "long": 51.65051632
      },
      "دشتستان": {
        "name": "دشتستان",
        "id": 711,
        "lat": 32.66719666,
        "long": 51.70824765
      },
      "دنارت": {
        "name": "دنارت",
        "id": 712,
        "lat": 32.6125233,
        "long": 51.74026397
      },
      "دهنو": {
        "name": "دهنو",
        "id": 713,
        "lat": 32.73064899,
        "long": 51.56887997
      },
      "ردان": {
        "name": "ردان",
        "id": 715,
        "lat": 32.59467781,
        "long": 51.75313563
      },
      "رکنالدولهشرقی": {
        "name": "رکن الدوله شرقی",
        "id": 717,
        "lat": 32.64998473,
        "long": 51.7185677
      },
      "رکنالدولهمرکزی": {
        "name": "رکن الدوله مرکزی",
        "id": 719,
        "lat": 32.64876983,
        "long": 51.70821002
      },
      "رهنان": {
        "name": "رهنان",
        "id": 720,
        "lat": 32.69434773,
        "long": 51.60402753
      },
      "روشندشت": {
        "name": "روشن دشت",
        "id": 722,
        "lat": 32.60727094,
        "long": 51.76104422
      },
      "زوان": {
        "name": "زوان",
        "id": 723,
        "lat": 32.61987109,
        "long": 51.75578169
      },
      "سپاهانشهر": {
        "name": "سپاهان شهر",
        "id": 725,
        "lat": 32.55147677,
        "long": 51.6728645
      },
      "سعادتآباد": {
        "name": "سعادت آباد",
        "id": 727,
        "lat": 32.61911630936293,
        "long": 51.67012558157731
      },
      "سودان": {
        "name": "سودان",
        "id": 728,
        "lat": 32.6718752,
        "long": 51.60558572
      },
      "شاهزید": {
        "name": "شاهزید",
        "id": 730,
        "lat": 32.65378859,
        "long": 51.70297888
      },
      "شهرکبختیاردشت": {
        "name": "شهرک بختیار دشت",
        "id": 732,
        "lat": 32.76018838,
        "long": 51.53924305
      },
      "شهرکرسالت": {
        "name": "شهرک رسالت",
        "id": 734,
        "lat": 32.71817007,
        "long": 51.58601172
      },
      "شهرکشهیدمحمدمنتظری": {
        "name": "شهرک شهید محمد منتظری",
        "id": 736,
        "lat": 32.77034095,
        "long": 51.55447784
      },
      "شهرکقدس": {
        "name": "شهرک قدس",
        "id": 737,
        "lat": 32.71238755,
        "long": 51.60632581
      },
      "شهرکمیلاد": {
        "name": "شهرک میلاد",
        "id": 739,
        "lat": 32.72897038,
        "long": 51.68075495
      },
      "شهیدانشرقی": {
        "name": "شهیدان شرقی",
        "id": 741,
        "lat": 32.67316918,
        "long": 51.64579756
      },
      "شهیشآباد": {
        "name": "شهیش آباد",
        "id": 742,
        "lat": 32.67705418,
        "long": 51.66091112
      },
      "شیخمفید": {
        "name": "شیخ مفید",
        "id": 744,
        "lat": 32.63097905,
        "long": 51.67849925
      },
      "صدف": {
        "name": "صدف",
        "id": 746,
        "lat": 32.73299674,
        "long": 51.65369348
      },
      "صفه": {
        "name": "صفه",
        "id": 747,
        "lat": 32.59105522,
        "long": 51.66360949
      },
      "طوقچی": {
        "name": "طوقچی",
        "id": 748,
        "lat": 32.67814223,
        "long": 51.69013678
      },
      "عباسآباد": {
        "name": "عباس آباد",
        "id": 750,
        "lat": 32.64759102,
        "long": 51.6584623
      },
      "عقیق": {
        "name": "عقیق",
        "id": 752,
        "lat": 32.7298785,
        "long": 51.65150864
      },
      "فتحآباد": {
        "name": "فتح آباد",
        "id": 753,
        "lat": 32.64311396,
        "long": 51.67935801
      },
      "فرهنگیانمعراج": {
        "name": "فرهنگیان - معراج",
        "id": 756,
        "lat": 32.68273613,
        "long": 51.72934235
      },
      "فروردین": {
        "name": "فروردین",
        "id": 757,
        "lat": 32.69191501,
        "long": 51.69532125
      },
      "فلاطوری": {
        "name": "فلاطوری",
        "id": 758,
        "lat": 32.70394128,
        "long": 51.68736653
      },
      "قائمیه": {
        "name": "قائمیه",
        "id": 760,
        "lat": 32.6308501,
        "long": 51.5932284
      },
      "کلمان": {
        "name": "کلمان",
        "id": 763,
        "lat": 32.64542315,
        "long": 51.72485875
      },
      "گورتان": {
        "name": "گورتان",
        "id": 771,
        "lat": 32.65748709,
        "long": 51.61882013
      },
      "لادان": {
        "name": "لادان",
        "id": 772,
        "lat": 32.66262624,
        "long": 51.61768544
      },
      "لاله": {
        "name": "لاله",
        "id": 773,
        "lat": 32.69203066,
        "long": 51.70323332
      },
      "لنبان": {
        "name": "لنبان",
        "id": 774,
        "lat": 32.65080748,
        "long": 51.64776528
      },
      "مارچین": {
        "name": "مارچین",
        "id": 775,
        "lat": 32.71102144,
        "long": 51.61750847
      },
      "مارنان": {
        "name": "مارنان",
        "id": 776,
        "lat": 32.63561408,
        "long": 51.64909006
      },
      "محلهنو": {
        "name": "محله نو",
        "id": 777,
        "lat": 32.66329567,
        "long": 51.65564662
      },
      "مفتح": {
        "name": "مفتح",
        "id": 781,
        "lat": 32.65950986,
        "long": 51.705505
      },