{"استان-خراسان-رضوی":{"id":207,"slug":"استان-خراسان-رضوی","parent_id":0,"name":"خراسان رضوی","lat":"۳۵.۱۰۲۰۰۰۰۰","long":"۵۹.۱۰۴۲۰۰۰۰","areas":[],"ostan":"","cities":{"مشهد":{"id":11,"slug":"مشهد","parent_id":207,"name":"مشهد","lat":"۳۶.۲۶۰۵۰۰۰۰","long":"۵۹.۶۱۶۸۰۰۰۰","areas":{"آبوبرق":{"name":"آب و برق","id":1630,"lat":36.31778037,"long":59.49191841},"آزادشهر":{"name":"آزادشهر","id":1632,"lat":36.32754525,"long":59.52703302},"آوینی":{"name":"آوینی","id":1633,"lat":36.30331822,"long":59.67536684},"آیتاللهعبادی":{"name":"آیت الله عبادی","id":1635,"lat":36.31239094,"long":59.61476969},"ابوطالب":{"name":"ابوطالب","id":1637,"lat":36.32549341,"long":59.59454569},"احمدآباد":{"name":"احمدآباد","id":1638,"lat":36.2963042,"long":59.57431942},"ارشاد":{"name":"ارشاد","id":1639,"lat":36.3170228,"long":59.57085484},"اقبال":{"name":"اقبال","id":1642,"lat":36.33212054,"long":59.46964712},"المهدی":{"name":"المهدی","id":1643,"lat":36.31006688295184,"long":59.638388022732876},"الهیه":{"name":"الهیه","id":1644,"lat":36.38064409,"long":59.46932943},"امامرضا":{"name":"امام رضا","id":1646,"lat":36.27212747,"long":59.60188082},"امامیه":{"name":"امامیه","id":1648,"lat":36.37253718,"long":59.51485027},"امیرآباد":{"name":"امیر آباد","id":1649,"lat":36.267021492150185,"long":59.65830400040304},"انصار":{"name":"انصار","id":1651,"lat":36.26305841377389,"long":59.689417768767},"انقلاب":{"name":"انقلاب","id":1652,"lat":36.23350349696856,"long":59.608488213198015},"ایثار":{"name":"ایثار","id":1653,"lat":36.2962509265878,"long":59.634176374540864},"ایثارگرانمنطقه2":{"name":"ایثارگران - منطقه 2","id":1655,"lat":36.32725946883642,"long":59.61893987636287},"ایوان":{"name":"ایوان","id":1657,"lat":36.20338184409657,"long":59.64742295339443},"بلال":{"name":"بلال","id":1660,"lat":36.328225554230315,"long":59.63280737396955},"بهارستانمنطقه9":{"name":"بهارستان - منطقه 9","id":1663,"lat":36.27739822,"long":59.54342855},"بهشت":{"name":"بهشت","id":1664,"lat":36.29468238006106,"long":59.58473615862871},"بهشتیمنطقه8":{"name":"بهشتی - منطقه 8","id":1666,"lat":36.2837886,"long":59.57565219},"بهمن":{"name":"بهمن","id":1667,"lat":36.34433519,"long":59.62230261},"بینالود":{"name":"بینالود","id":1668,"lat":0,"long":0},"پردیس":{"name":"پردیس","id":1670,"lat":36.26253619,"long":59.63175352},"پنجتنآلعبا":{"name":"پنج تن آل عبا","id":1672,"lat":36.32192386,"long":59.6929421},"پورسینا":{"name":"پورسینا","id":1673,"lat":36.27211838054366,"long":59.67632035862952},"تربیت":{"name":"تربیت","id":1675,"lat":36.30359562,"long":59.59046359},"تلگرد":{"name":"تلگرد","id":1676,"lat":36.29891056,"long":59.65781669},"ثامن":{"name":"ثامن","id":1677,"lat":36.286748448853665,"long":59.66914578952922},"جاهدشهر":{"name":"جاهدشهر","id":1679,"lat":36.36203129,"long":59.47058207},"جنت":{"name":"جنت","id":1680,"lat":36.2924693850495,"long":59.598401900957896},"چهارچشمه":{"name":"چهار چشمه","id":1682,"lat":36.30240822,"long":59.50361037},"حافظ":{"name":"حافظ","id":1684,"lat":36.25335053,"long":59.59650163},"حجاب":{"name":"حجاب","id":1685,"lat":36.36250873,"long":59.52129594},"حسینآباد":{"name":"حسین آباد","id":1687,"lat":36.28816756,"long":59.64616599},"خرمشهر":{"name":"خرمشهر","id":1689,"lat":36.27268371340634,"long":59.59413537568926},"دانش":{"name":"دانش","id":1691,"lat":36.29775968,"long":59.58760052},"دانشجو":{"name":"دانشجو","id":1692,"lat":36.33614154,"long":59.50555397},"دروی":{"name":"دروی","id":1693,"lat":36.322010196201894,"long":59.64339762466392},"رازی":{"name":"رازی","id":1695,"lat":36.35513258566028,"long":59.53523401999399},"راهنمایی":{"name":"راهنمایی","id":1697,"lat":36.29981572174792,"long":59.569496386901626},"رباط":{"name":"رباط","id":1698,"lat":36.207936384081435,"long":59.625980514573996},"رسالتمنطقه3":{"name":"رسالت - منطقه 3","id":1701,"lat":36.31000114,"long":59.63615427},"رضاشهر":{"name":"رضا شهر","id":1702,"lat":36.29121731,"long":59.54268427},"زرکش":{"name":"زرکش","id":1704,"lat":36.39534456,"long":59.52139066},"زیباشهر":{"name":"زیباشهر","id":1705,"lat":36.33959373,"long":59.54237672},"سجادیه":{"name":"سجادیه","id":1707,"lat":36.28647165,"long":59.63904167},"سرافرازان":{"name":"سرافرازان","id":1709,"lat":36.29286945,"long":59.51075902},"سعدآباد":{"name":"سعدآباد","id":1710,"lat":36.304350486367554,"long":59.58867675473949},"سمزقند":{"name":"سمزقند","id":1712,"lat":36.31717762139127,"long":59.61755745187276},"سیدرضی":{"name":"سید رضی","id":1714,"lat":36.33353347,"long":59.52082349},"سیسآباد":{"name":"سیس آباد","id":1716,"lat":36.34841422273589,"long":59.65786863674159},"شاهد":{"name":"شاهد","id":1717,"lat":36.35924476,"long":59.50829576},"شفا":{"name":"شفا","id":1719,"lat":36.32950116685682,"long":59.5988778413722},"شهرکابوذرمنطقه7":{"name":"شهرک ابوذر - منطقه 7","id":1721,"lat":36.21607157,"long":59.61877709},"شهیدمعقول":{"name":"شهید معقول","id":1723,"lat":36.26152882913376,"long":59.66471382418038},"شیرودی":{"name":"شیرودی","id":1724,"lat":36.27083906,"long":59.62600712},"طبرسی":{"name":"طبرسی","id":1726,"lat":36.30087367,"long":59.63634686},"طرق":{"name":"طرق","id":1728,"lat":36.20882234356951,"long":59.66528885951678},"طلاب":{"name":"طلاب","id":1729,"lat":36.30385349,"long":59.65345634},"طوس":{"name":"طوس","id":1730,"lat":36.35486963,"long":59.5567644},"عسگریه":{"name":"عسگریه","id":1733,"lat":36.23350242046398,"long":59.628184249786976},"عنصری":{"name":"عنصری","id":1734,"lat":36.27401258190703,"long":59.61366631046568},"فارغالتحصیلان":{"name":"فارغ التحصیلان","id":1736,"lat":36.34101265,"long":59.47040457},"فدک":{"name":"فدک","id":1738,"lat":36.34744992126099,"long":59.57289549877177},"فرهنگ":{"name":"فرهنگ","id":1740,"lat":36.33003719,"long":59.5087797},"فرهنگیان":{"name":"فرهنگیان","id":1741,"lat":36.35497771391836,"long":59.49495198501389},"فرودگاه":{"name":"فرودگاه","id":1742,"lat":36.22984768,"long":59.64466164},"قربانی":{"name":"قربانی","id":1744,"lat":36.363965431164296,"long":59.545412695498925},"کارمنداناول":{"name":"کارمندان اول","id":1746,"lat":36.27558893,"long":59.63447412},"کشاورز":{"name":"کشاورز","id":1748,"lat":36.25834147,"long":59.6723914},"کلاهدوز":{"name":"کلاهدوز","id":1749,"lat":36.30683868,"long":59.57914556},"کوشش":{"name":"کوشش","id":1751,"lat":36.261004508599484,"long":59.60303656998208},"کوهسنگی":{"name":"کوهسنگی","id":1752,"lat":36.28832643,"long":59.57015744},"کویپلیس":{"name":"کوی پلیس","id":1755,"lat":36.25512790766654,"long":59.603036566307814},"کویپنجتن":{"name":"کوی پنج تن","id":1756,"lat":36.306949464190964,"long":59.66924343367251},"گاز":{"name":"گاز","id":1757,"lat":36.31694469015119,"long":59.627667446858425},"گوهرشاد":{"name":"گوهرشاد","id":1758,"lat":0,"long":0},"محمدآباد":{"name":"محمد آباد","id":1760,"lat":36.26403157504006,"long":59.63814083131614},"مشهدقلی":{"name":"مشهد قلی","id":1762,"lat":36.38414778191684,"long":59.533935106420174},"مطهری":{"name":"مطهری","id":1763,"lat":36.355937778228494,"long":59.487714231137836},"مقدم":{"name":"مقدم","id":1765,"lat":36.26224585129832,"long":59.609518863124904},"مهدیآبادمنطقه5":{"name":"مهدی آباد - منطقه 5","id":1767,"lat":36.27600567684792,"long":59.6961878442809},"مهرآباد":{"name":"مهرآباد","id":1768,"lat":36.27518437,"long":59.66076916},"موعود":{"name":"موعود","id":1769,"lat":36.26621868990441,"long":59.6790242630028},"نوغان":{"name":"نوغان","id":1771,"lat":36.293698859141635,"long":59.62002391490216},"نوید":{"name":"نوید","id":1773,"lat":36.35145081,"long":59.56723064},"نیروهوایی":{"name":"نیروهوایی","id":1774,"lat":36.30557968,"long":59.49651109},"نیزه":{"name":"نیزه","id":1775,"lat":36.30371632793912,"long":59.67734004062257},"هفدهشهریور":{"name":"هفده شهریور","id":1777,"lat":36.27209461,"long":59.61279122},"هنرور":{"name":"هنرور","id":1779,"lat":36.32307669,"long":59.60659663},"وحید":{"name":"وحید","id":1780,"lat":36.30683650396043,"long":59.65690088538439},"ولیعصرمنطقه7":{"name":"ولیعصر - منطقه 7","id":1782,"lat":36.24760545518351,"long":59.59759896311386},"آبکوه":{"name":"آبکوه","id":1631,"lat":36.30780213,"long":59.5738088},"آیتاللهخامنهای":{"name":"آیت الله خامنه ای","id":1634,"lat":36.28687018714195,"long":59.60767450904513},"ابوذرمنطقه4":{"name":"ابوذر - منطقه 4","id":1636,"lat":36.30487686649121,"long":59.631728889112345},"اروند":{"name":"اروند","id":1640,"lat":36.263080625083546,"long":59.68095122458746},"استادیوسفی":{"name":"استاد یوسفی","id":1641,"lat":36.36177258,"long":59.52731753},"امامخمینی":{"name":"امام خمینی","id":1645,"lat":36.2716116,"long":59.58961658},"امامهادی":{"name":"امام هادی","id":1647,"lat":36.35844892,"long":59.54625351},"امیرالمومنینمنطقه5":{"name":"امیرالمومنین - منطقه 5","id":1650,"lat":36.28924321671006,"long":59.629458515800785},"ایثارگرانمنطقه10":{"name":"ایثارگران - منطقه 10","id":1654,"lat":36.37187608,"long":59.52476096},"ایمان":{"name":"ایمان","id":1656,"lat":36.25400966747302,"long":59.59531010648308},"بالاخیابان":{"name":"بالا خیابان","id":1658,"lat":36.295702985453964,"long":59.615896328851086},"باهنر":{"name":"باهنر","id":1659,"lat":36.31254798,"long":59.52264046},"بهاران":{"name":"بهاران","id":1661,"lat":36.34641777127747,"long":59.55986293461264},"بهارستانمنطقه7":{"name":"بهارستان - منطقه 7","id":1662,"lat":36.22886634885991,"long":59.6129945242772},"بهشتیمنطقه1":{"name":"بهشتی - منطقه 1","id":1665,"lat":36.28363468283313,"long":59.575229268823314},"پایینخیابان":{"name":"پایین خیابان","id":1669,"lat":36.28688124849658,"long":59.62327912430671},"پرویناعتصامی":{"name":"پروین اعتصامی","id":1671,"lat":36.25837168,"long":59.60946147},"تربتحیدریه":{"name":"تربت حیدریه","id":1674,"lat":0,"long":0},"جانبازان":{"name":"جانبازان","id":1678,"lat":36.28333808,"long":59.5985977},"چهارباغ":{"name":"چهار باغ","id":1681,"lat":36.290362923168935,"long":59.61009491859921},"چهنو":{"name":"چهنو","id":1683,"lat":36.27105200273817,"long":59.630325751707836},"حجت":{"name":"حجت","id":1686,"lat":36.32014279,"long":59.59357166},"خاتمالانبیا":{"name":"خاتم الانبیا","id":1688,"lat":36.38355893147101,"long":59.525062541952344},"خواجهربیع":{"name":"خواجه ربیع","id":1690,"lat":36.33767461,"long":59.62879413},"دهدی":{"name":"ده دی","id":1694,"lat":36.28388498518559,"long":59.59737763484988},"راهآهن":{"name":"راه آهن","id":1696,"lat":36.30470669218077,"long":59.6235657597979},"رده":{"name":"رده","id":1699,"lat":36.31449190434444,"long":59.66425066391657},"رسالتمنطقه10":{"name":"رسالت - منطقه 10","id":1700,"lat":36.35267513,"long":59.47835179},"رضاییه":{"name":"رضاییه","id":1703,"lat":36.287442419076136,"long":59.6321467187687},"سجاد":{"name":"سجاد","id":1706,"lat":36.31831563,"long":59.55129448},"سراب":{"name":"سراب","id":1708,"lat":36.29439697666164,"long":59.60566088907181},"سلام":{"name":"سلام","id":1711,"lat":36.27698832386701,"long":59.60281850016955},"سناباد":{"name":"سناباد","id":1713,"lat":36.29926728,"long":59.58414343},"سیدی":{"name":"سیدی","id":1715,"lat":36.24466965,"long":59.61102348},"شریف":{"name":"شریف","id":1718,"lat":36.34133274,"long":59.47898187},"شهرآرا":{"name":"شهرآرا","id":1720,"lat":36.3492393630822,"long":59.503095146703},"شهیدرضوی":{"name":"شهید رضوی","id":1722,"lat":36.343051226193275,"long":59.52371639295575},"شیرین":{"name":"شیرین","id":1725,"lat":36.30172862213982,"long":59.56834205951987},"طبرسیشمالی":{"name":"طبرسی شمالی","id":1727,"lat":36.32316695,"long":59.67233779},"عامل":{"name":"عامل","id":1731,"lat":36.31186182709489,"long":59.595957008502054},"عبدالمطلب":{"name":"عبدالمطلب","id":1732,"lat":36.31768865,"long":59.6074439},"عیدگاه":{"name":"عیدگاه","id":1735,"lat":36.283590449787894,"long":59.6151825885988},"فاطمیه":{"name":"فاطمیه","id":1737,"lat":36.31507985,"long":59.62441729},"فرامرزعباسی":{"name":"فرامرز عباسی","id":1739,"lat":36.33657811,"long":59.55087666},"فلسطین":{"name":"فلسطین","id":1743,"lat":36.3042247,"long":59.56523933},"کارگران":{"name":"کارگران","id":1745,"lat":36.26636510753958,"long":59.6255050524334},"کارمنداندوم":{"name":"کارمندان دوم","id":1747,"lat":36.26832985205988,"long":59.646547656301415},"کوثر":{"name":"کوثر","id":1750,"lat":36.31849693,"long":59.51659322},"کویآقامصطفیخمینی":{"name":"کوی آقا مصطفی خمینی","id":1753,"lat":36.257281823996045,"long":59.63389994090772},"کویامیرالمومنینمنطقه2":{"name":"کوی امیرالمومنین - منطقه 2","id":1754,"lat":36.34178296,"long":59.5786014},"لشگر":{"name":"لشگر","id":1759,"lat":36.36451542,"long":59.49621363},"محمودآباد":{"name":"محمود آباد","id":1761,"lat":0,"long":0},"مطهریمنطقه2":{"name":"مطهری - منطقه 2","id":1764,"lat":36.31819946,"long":59.59744266},"مهدیآبادمنطقه2":{"name":"مهدی آباد - منطقه 2","id":1766,"lat":36.367192801485444,"long":59.55201677032166},"نوده":{"name":"نوده","id":1770,"lat":36.37571491417963,"long":59.54407337306726},"نوفللوشاتو":{"name":"نوفل لوشاتو","id":1772,"lat":36.296071881194884,"long":59.54765804983826},"هاشمینژاد":{"name":"هاشمی نژاد","id":1776,"lat":36.34151941,"long":59.53704421},"هنرستان":{"name":"هنرستان","id":1778,"lat":36.31951805,"long":59.5049183},"ولیعصرمنطقه10":{"name":"ولیعصر - منطقه 10","id":1781,"lat":36.34932768012314,"long":59.52247722744564}},"ostan":"استان-خراسان-رضوی"},"تربت-جام":{"id":69,"slug":"تربت-جام","parent_id":207,"name":"تربت جام","lat":"۳۵.۲۳۱۷۰۰۰۰","long":"۶۰.۶۴۰۱۰۰۰۰","areas":{},"ostan":"استان-خراسان-رضوی"},"سبزوار":{"id":106,"slug":"سبزوار","parent_id":207,"name":"سبزوار","lat":"۳۶.۲۱۵۲۰۰۰۰","long":"۵۷.۶۶۷۸۰۰۰۰","areas":{},"ostan":"استان-خراسان-رضوی"},"گناباد":{"id":156,"slug":"گناباد","parent_id":207,"name":"گناباد","lat":"۳۴.۳۳۹۶۰۰۰۰","long":"۵۸.۷۰۳۰۰۰۰۰","areas":{},"ostan":"استان-خراسان-رضوی"},"نیشابور":{"id":186,"slug":"نیشابور","parent_id":207,"name":"نیشابور","lat":"۳۶.۲۱۴۱۰۰۰۰","long":"۵۸.۷۹۶۱۰۰۰۰","areas":{},"ostan":"استان-خراسان-رضوی"},"تربت-حیدریه":{"id":205,"slug":"تربت-حیدریه","parent_id":207,"name":"تربت حیدریه","lat":"۳۵.۲۷۹۸۰۰۰۰","long":"۵۹.۲۱۶۱۰۰۰۰","areas":{},"ostan":"استان-خراسان-رضوی"},"تایباد":{"id":253,"slug":"تایباد","parent_id":207,"name":"تایباد","lat":"۳۴.۷۴۴۷۱۱۸۹","long":"۶۰.۷۷۹۵۸۵۷۴","areas":{"مولاناشرقی":{"name":"مولانا شرقی","id":1,"lat":0,"long":0},"مولاناغربی":{"name":"مولانا غربی","id":2,"lat":0,"long":0},"بلواربهشتی":{"name":"بلوار بهشتی","id":3,"lat":0,"long":0},"رجایی":{"name":"رجایی","id":4,"lat":0,"long":0},"خرمشهر":{"name":"خرمشهر","id":5,"lat":0,"long":0},"بلوارمنتظری":{"name":"بلوار منتظری","id":6,"lat":0,"long":0},"بلوارامامحسین":{"name":"بلوار امام حسین","id":7,"lat":0,"long":0},"بلوارملاصدرا":{"name":"بلوار ملاصدرا","id":8,"lat":0,"long":0},"بلوارشهدانیروانتظامی":{"name":"بلوار شهدا نیرو انتظامی","id":9,"lat":0,"long":0},"یاسرشمالی":{"name":"یاسر شمالی","id":10,"lat":0,"long":0},"یاسرجنوبی":{"name":"یاسر جنوبی","id":11,"lat":0,"long":0},"سمیهجنوبی":{"name":"سمیه جنوبی","id":12,"lat":0,"long":0},"سمیهشمالی":{"name":"سمیه شمالی","id":13,"lat":0,"long":0},"بسیجشمالی":{"name":"بسیج شمالی","id":14,"lat":0,"long":0},"بسیججنوبی":{"name":"بسیج جنوبی","id":15,"lat":0,"long":0},"بلوارفرهنگیان":{"name":"بلوار فرهنگیان","id":16,"lat":0,"long":0},"میدانمحمدرسوالالله":{"name":"میدان محمد رسوال الله","id":17,"lat":0,"long":0},"بلوارشاداب":{"name":"بلوار شاداب","id":18,"lat":0,"long":0},"میدانانقلاب":{"name":"میدان انقلاب","id":19,"lat":0,"long":0},"خیابانآزادی":{"name":"خیابان آزادی","id":20,"lat":0,"long":0},"بیستودوبهمن":{"name":"بیست و دو بهمن","id":21,"lat":0,"long":0},"سروش":{"name":"سروش","id":22,"lat":0,"long":0},"بلوارامامعلی":{"name":"بلوار امام علی","id":23,"lat":0,"long":0},"مرصاد":{"name":"مرصاد","id":24,"lat":0,"long":0},"استقلال":{"name":"استقلال","id":25,"lat":0,"long":0},"بلوارشاهد":{"name":"بلوار شاهد","id":26,"lat":0,"long":0},"گلستان":{"name":"گلستان","id":27,"lat":0,"long":0},"کمربندی":{"name":"کمربندی","id":28,"lat":0,"long":0},"میدانوحدت":{"name":"میدان وحدت","id":29,"lat":0,"long":0},"میدانمولانا":{"name":"میدان مولانا","id":30,"lat":0,"long":0}},"ostan":"استان-خراسان-رضوی"},"احمدآباد-صولت":{"id":775,"slug":"احمدآباد-صولت","parent_id":207,"name":"احمدآباد صولت","lat":"۳۵.۱۱۴۹۰۰۰۰","long":"۶۰.۶۸۸۰۰۰۰۰","areas":{},"ostan":"استان-خراسان-رضوی"},"انابد":{"id":776,"slug":"انابد","parent_id":207,"name":"انابد","lat":"۳۵.۲۵۱۱۰۰۰۰","long":"۵۷.۸۰۹۸۰۰۰۰","areas":{},"ostan":"استان-خراسان-رضوی"},"باجگیران":{"id":777,"slug":"باجگیران","parent_id":207,"name":"باجگیران","lat":"۳۷.۶۲۴۱۰۰۰۰","long":"۵۸.۴۱۵۲۰۰۰۰","areas":{},"ostan":"استان-خراسان-رضوی"},"باخرز":{"id":778,"slug":"باخرز","parent_id":207,"name":"باخرز","lat":"۳۴.۹۸۳۲۰۰۰۰","long":"۶۰.۳۱۸۷۰۰۰۰","areas":{},"ostan":"استان-خراسان-رضوی"},"بار":{"id":779,"slug":"بار","parent_id":207,"name":"بار","lat":"۳۶.۴۸۸۸۰۰۰۰","long":"۵۸.۷۱۹۱۰۰۰۰","areas":{},"ostan":"استان-خراسان-رضوی"},"بایگ":{"id":780,"slug":"بایگ","parent_id":207,"name":"بایگ","lat":"۳۵.۳۷۵۱۰۰۰۰","long":"۵۹.۰۳۹۷۰۰۰۰","areas":{},"ostan":"استان-خراسان-رضوی"},"بجستان":{"id":781,"slug":"بجستان","parent_id":207,"name":"بجستان","lat":"۳۴.۵۱۵۴۰۰۰۰","long":"۵۸.۱۸۱۸۰۰۰۰","areas":{},"ostan":"استان-خراسان-رضوی"},"بردسکن":{"id":782,"slug":"بردسکن","parent_id":207,"name":"بردسکن","lat":"۳۵.۲۶۰۲۰۰۰۰","long":"۵۷.۹۷۲۰۰۰۰۰","areas":{},"ostan":"استان-خراسان-رضوی"},"بیدخت":{"id":783,"slug":"بیدخت","parent_id":207,"name":"بیدخت","lat":"۳۴.۳۴۶۲۰۰۰۰","long":"۵۸.۷۵۷۳۰۰۰۰","areas":{},"ostan":"استان-خراسان-رضوی"},"بینالود":{"id":784,"slug":"بینالود","parent_id":207,"name":"بینالود","lat":"۳۵.۹۸۱۱۰۰۰۰","long":"۵۹.۳۶۱۶۰۰۰۰","areas":{},"ostan":"استان-خراسان-رضوی"},"جغتای":{"id":785,"slug":"جغتای","parent_id":207,"name":"جغتای","lat":"۳۶.۶۳۹۶۰۰۰۰","long":"۵۷.۰۷۷۲۰۰۰۰","areas":{},"ostan":"استان-خراسان-رضوی"},"جنگل":{"id":786,"slug":"جنگل","parent_id":207,"name":"جنگل","lat":"۳۴.۷۰۱۶۰۰۰۰","long":"۵۹.۲۲۳۴۰۰۰۰","areas":{},"ostan":"استان-خراسان-رضوی"},"چاپشلو":{"id":787,"slug":"چاپشلو","parent_id":207,"name":"چاپشلو","lat":"۳۷.۳۴۷۴۰۰۰۰","long":"۵۹.۰۷۷۱۰۰۰۰","areas":{},"ostan":"استان-خراسان-رضوی"},"چکنه":{"id":788,"slug":"چکنه","parent_id":207,"name":"چکنه","lat":"۳۶.۸۱۷۹۰۰۰۰","long":"۵۸.۵۰۴۱۰۰۰۰","areas":{},"ostan":"استان-خراسان-رضوی"},"چناران":{"id":789,"slug":"چناران","parent_id":207,"name":"چناران","lat":"۳۶.۶۴۲۲۰۰۰۰","long":"۵۹.۱۲۰۸۰۰۰۰","areas":{},"ostan":"استان-خراسان-رضوی"},"خرو":{"id":790,"slug":"خرو","parent_id":207,"name":"خرو","lat":"۳۶.۱۳۶۴۰۰۰۰","long":"۵۹.۰۲۷۰۰۰۰۰","areas":{},"ostan":"استان-خراسان-رضوی"},"خلیل-آباد":{"id":791,"slug":"خلیل-آباد","parent_id":207,"name":"خلیل آباد","lat":"۳۵.۲۴۴۹۰۰۰۰","long":"۵۸.۲۸۵۱۰۰۰۰","areas":{},"ostan":"استان-خراسان-رضوی"},"خواف":{"id":792,"slug":"خواف","parent_id":207,"name":"خواف","lat":"۳۴.۵۶۲۸۰۰۰۰","long":"۶۰.۱۴۴۲۰۰۰۰","areas":{},"ostan":"استان-خراسان-رضوی"},"داورزن":{"id":793,"slug":"داورزن","parent_id":207,"name":"داورزن","lat":"۳۶.۳۵۱۲۰۰۰۰","long":"۵۶.۸۷۸۰۰۰۰۰","areas":{},"ostan":"استان-خراسان-رضوی"},"در-رود":{"id":794,"slug":"در-رود","parent_id":207,"name":"در رود","lat":"۳۶.۱۳۵۷۰۰۰۰","long":"۵۹.۱۱۲۳۰۰۰۰","areas":{},"ostan":"استان-خراسان-رضوی"},"درگز":{"id":795,"slug":"درگز","parent_id":207,"name":"درگز","lat":"۳۷.۴۴۴۷۰۰۰۰","long":"۵۹.۱۰۵۷۰۰۰۰","areas":{},"ostan":"استان-خراسان-رضوی"},"دولت-آباد":{"id":796,"slug":"دولت-آباد","parent_id":207,"name":"دولت آباد","lat":"۳۵.۲۸۲۰۰۰۰۰","long":"۵۹.۵۲۲۱۰۰۰۰","areas":{},"ostan":"استان-خراسان-رضوی"},"رباط-سنگ":{"id":797,"slug":"رباط-سنگ","parent_id":207,"name":"رباط سنگ","lat":"۳۵.۵۴۴۶۰۰۰۰","long":"۵۹.۱۹۴۱۰۰۰۰","areas":{},"ostan":"استان-خراسان-رضوی"},"رشتخوار":{"id":798,"slug":"رشتخوار","parent_id":207,"name":"رشتخوار","lat":"۳۴.۹۷۵۰۰۰۰۰","long":"۵۹.۶۲۳۰۰۰۰۰","areas":{},"ostan":"استان-خراسان-رضوی"},"رضویه":{"id":799,"slug":"رضویه","parent_id":207,"name":"رضویه","lat":"۳۶.۲۰۵۵۰۰۰۰","long":"۵۹.۷۶۹۸۰۰۰۰","areas":{},"ostan":"استان-خراسان-رضوی"},"روداب":{"id":800,"slug":"روداب","parent_id":207,"name":"روداب","lat":"۳۶.۰۲۰۸۰۰۰۰","long":"۵۷.۳۱۲۴۰۰۰۰","areas":{},"ostan":"استان-خراسان-رضوی"},"ریوش":{"id":801,"slug":"ریوش","parent_id":207,"name":"ریوش","lat":"۳۵.۴۷۶۵۰۰۰۰","long":"۵۸.۴۶۱۶۰۰۰۰","areas":{},"ostan":"استان-خراسان-رضوی"},"سرخس":{"id":802,"slug":"سرخس","parent_id":207,"name":"سرخس","lat":"۳۶.۵۴۸۶۰۰۰۰","long":"۶۱.۱۴۸۶۰۰۰۰","areas":{},"ostan":"استان-خراسان-رضوی"},"سفیدسنگ":{"id":803,"slug":"سفیدسنگ","parent_id":207,"name":"سفیدسنگ","lat":"۳۵.۶۶۰۰۰۰۰۰","long":"۶۰.۰۹۳۳۰۰۰۰","areas":{},"ostan":"استان-خراسان-رضوی"},"سلامی":{"id":804,"slug":"سلامی","parent_id":207,"name":"سلامی","lat":"۳۴.۷۴۴۳۰۰۰۰","long":"۵۹.۹۷۶۴۰۰۰۰","areas":{},"ostan":"استان-خراسان-رضوی"},"سلطان-آباد":{"id":805,"slug":"سلطان-آباد","parent_id":207,"name":"سلطان آباد","lat":"۳۶.۴۰۲۷۰۰۰۰","long":"۵۸.۰۳۹۸۰۰۰۰","areas":{},"ostan":"استان-خراسان-رضوی"},"سنگان":{"id":806,"slug":"سنگان","parent_id":207,"name":"سنگان","lat":"۳۴.۳۹۷۷۰۰۰۰","long":"۶۰.۲۵۵۴۰۰۰۰","areas":{},"ostan":"استان-خراسان-رضوی"},"شادمهر":{"id":807,"slug":"شادمهر","parent_id":207,"name":"شادمهر","lat":"۳۵.۱۷۳۴۰۰۰۰","long":"۵۹.۰۳۷۹۰۰۰۰","areas":{},"ostan":"استان-خراسان-رضوی"},"شاندیز":{"id":808,"slug":"شاندیز","parent_id":207,"name":"شاندیز","lat":"۳۶.۳۹۵۲۰۰۰۰","long":"۵۹.۲۹۸۱۰۰۰۰","areas":{},"ostan":"استان-خراسان-رضوی"},"ششتمد":{"id":809,"slug":"ششتمد","parent_id":207,"name":"ششتمد","lat":"۳۵.۹۵۹۵۰۰۰۰","long":"۵۷.۷۷۰۲۰۰۰۰","areas":{},"ostan":"استان-خراسان-رضوی"},"شهرآباد":{"id":810,"slug":"شهرآباد","parent_id":207,"name":"شهرآباد","lat":"۳۵.۱۴۶۹۰۰۰۰","long":"۵۷.۹۳۴۸۰۰۰۰","areas":{},"ostan":"استان-خراسان-رضوی"},"شهرزو":{"id":811,"slug":"شهرزو","parent_id":207,"name":"شهرزو","lat":"۳۶.۷۴۶۰۰۰۰۰","long":"۵۹.۹۲۴۲۰۰۰۰","areas":{},"ostan":"استان-خراسان-رضوی"},"صالح-آباد":{"id":812,"slug":"صالح-آباد","parent_id":207,"name":"صالح آباد","lat":"۳۵.۶۸۷۹۰۰۰۰","long":"۶۱.۰۹۰۴۰۰۰۰","areas":{},"ostan":"استان-خراسان-رضوی"},"طرقبه":{"id":813,"slug":"طرقبه","parent_id":207,"name":"طرقبه","lat":"۳۶.۳۰۴۲۰۰۰۰","long":"۵۹.۳۷۶۳۰۰۰۰","areas":{},"ostan":"استان-خراسان-رضوی"},"عشق-آباد":{"id":814,"slug":"عشق-آباد","parent_id":207,"name":"عشق آباد","lat":"۳۶.۰۳۹۴۰۰۰۰","long":"۵۸.۶۸۳۲۰۰۰۰","areas":{},"ostan":"استان-خراسان-رضوی"},"فرهادگرد":{"id":815,"slug":"فرهادگرد","parent_id":207,"name":"فرهادگرد","lat":"۳۵.۷۵۱۸۰۰۰۰","long":"۵۹.۷۲۹۸۰۰۰۰","areas":{},"ostan":"استان-خراسان-رضوی"},"فریمان":{"id":816,"slug":"فریمان","parent_id":207,"name":"فریمان","lat":"۳۵.۷۰۴۰۰۰۰۰","long":"۵۹.۸۴۸۲۰۰۰۰","areas":{},"ostan":"استان-خراسان-رضوی"},"فیروزه":{"id":817,"slug":"فیروزه","parent_id":207,"name":"فیروزه","lat":"۳۶.۲۸۵۶۰۰۰۰","long":"۵۸.۵۸۹۰۰۰۰۰","areas":{},"ostan":"استان-خراسان-رضوی"},"فیض-آباد":{"id":818,"slug":"فیض-آباد","parent_id":207,"name":"فیض آباد","lat":"۳۵.۰۱۴۶۰۰۰۰","long":"۵۸.۷۷۵۱۰۰۰۰","areas":{},"ostan":"استان-خراسان-رضوی"},"قاسم-آباد":{"id":819,"slug":"قاسم-آباد","parent_id":207,"name":"قاسم آباد","lat":"۳۴.۳۵۵۶۰۰۰۰","long":"۵۹.۸۶۱۹۰۰۰۰","areas":{},"ostan":"استان-خراسان-رضوی"},"قدمگاه":{"id":820,"slug":"قدمگاه","parent_id":207,"name":"قدمگاه","lat":"۳۶.۱۰۵۸۰۰۰۰","long":"۵۹.۰۶۰۴۰۰۰۰","areas":{},"ostan":"استان-خراسان-رضوی"},"قلندرآباد":{"id":821,"slug":"قلندرآباد","parent_id":207,"name":"قلندرآباد","lat":"۳۵.۵۹۸۹۰۰۰۰","long":"۵۹.۹۵۱۰۰۰۰۰","areas":{},"ostan":"استان-خراسان-رضوی"},"قوچان":{"id":822,"slug":"قوچان","parent_id":207,"name":"قوچان","lat":"۳۷.۱۰۲۳۰۰۰۰","long":"۵۸.۵۱۰۸۰۰۰۰","areas":{},"ostan":"استان-خراسان-رضوی"},"کاخک":{"id":823,"slug":"کاخک","parent_id":207,"name":"کاخک","lat":"۳۴.۱۴۸۶۰۰۰۰","long":"۵۸.۶۴۴۵۰۰۰۰","areas":{},"ostan":"استان-خراسان-رضوی"},"کاریز":{"id":824,"slug":"کاریز","parent_id":207,"name":"کاریز","lat":"۳۴.۸۱۳۶۰۰۰۰","long":"۶۰.۸۲۵۳۰۰۰۰","areas":{},"ostan":"استان-خراسان-رضوی"},"کاشمر":{"id":825,"slug":"کاشمر","parent_id":207,"name":"کاشمر","lat":"۳۵.۲۴۲۷۰۰۰۰","long":"۵۸.۴۵۹۸۰۰۰۰","areas":{},"ostan":"استان-خراسان-رضوی"},"کدکن":{"id":826,"slug":"کدکن","parent_id":207,"name":"کدکن","lat":"۳۵.۵۸۵۸۰۰۰۰","long":"۵۸.۸۷۸۹۰۰۰۰","areas":{},"ostan":"استان-خراسان-رضوی"},"کلات":{"id":827,"slug":"کلات","parent_id":207,"name":"کلات","lat":"۳۶.۹۹۴۵۰۰۰۰","long":"۵۹.۷۴۹۸۰۰۰۰","areas":{},"ostan":"استان-خراسان-رضوی"},"کندر":{"id":828,"slug":"کندر","parent_id":207,"name":"کندر","lat":"۳۵.۲۱۲۴۰۰۰۰","long":"۵۸.۱۵۰۷۰۰۰۰","areas":{},"ostan":"استان-خراسان-رضوی"},"گلبهار":{"id":829,"slug":"گلبهار","parent_id":207,"name":"گلبهار","lat":"۳۶.۵۶۹۹۰۰۰۰","long":"۵۹.۱۶۱۶۰۰۰۰","areas":{},"ostan":"استان-خراسان-رضوی"},"گلمکان":{"id":830,"slug":"گلمکان","parent_id":207,"name":"گلمکان","lat":"۳۶.۴۸۲۱۰۰۰۰","long":"۵۹.۱۵۹۴۰۰۰۰","areas":{},"ostan":"استان-خراسان-رضوی"},"لطف-آباد":{"id":831,"slug":"لطف-آباد","parent_id":207,"name":"لطف آباد","lat":"۳۷.۵۱۵۲۰۰۰۰","long":"۵۹.۳۳۴۷۰۰۰۰","areas":{},"ostan":"استان-خراسان-رضوی"},"مزدآوند":{"id":832,"slug":"مزدآوند","parent_id":207,"name":"مزدآوند","lat":"۳۶.۱۵۴۶۰۰۰۰","long":"۶۰.۵۲۷۶۰۰۰۰","areas":{},"ostan":"استان-خراسان-رضوی"},"ملک-آباد":{"id":833,"slug":"ملک-آباد","parent_id":207,"name":"ملک آباد","lat":"۳۵.۹۹۶۵۰۰۰۰","long":"۵۹.۵۹۳۵۰۰۰۰","areas":{},"ostan":"استان-خراسان-رضوی"},"نشتیفان":{"id":834,"slug":"نشتیفان","parent_id":207,"name":"نشتیفان","lat":"۳۴.۴۳۴۳۰۰۰۰","long":"۶۰.۱۷۶۴۰۰۰۰","areas":{},"ostan":"استان-خراسان-رضوی"},"نصرآباد":{"id":835,"slug":"نصرآباد","parent_id":207,"name":"نصرآباد","lat":"۳۵.۴۱۸۰۰۰۰۰","long":"۶۰.۳۱۵۳۰۰۰۰","areas":{},"ostan":"استان-خراسان-رضوی"},"نقاب":{"id":836,"slug":"نقاب","parent_id":207,"name":"نقاب","lat":"۳۶.۷۰۸۵۰۰۰۰","long":"۵۷.۴۰۸۱۰۰۰۰","areas":{},"ostan":"استان-خراسان-رضوی"},"نوخندان":{"id":837,"slug":"نوخندان","parent_id":207,"name":"نوخندان","lat":"۳۷.۵۱۹۳۰۰۰۰","long":"۵۸.۹۸۸۹۰۰۰۰","areas":{},"ostan":"استان-خراسان-رضوی"},"نیل-شهر":{"id":838,"slug":"نیل-شهر","parent_id":207,"name":"نیل شهر","lat":"۳۵.۱۲۲۸۰۰۰۰","long":"۶۰.۷۷۳۱۰۰۰۰","areas":{},"ostan":"استان-خراسان-رضوی"},"همت-آباد":{"id":839,"slug":"همت-آباد","parent_id":207,"name":"همت آباد","lat":"۳۶.۲۹۷۷۰۰۰۰","long":"۵۸.۴۶۴۱۰۰۰۰","areas":{},"ostan":"استان-خراسان-رضوی"},"یونسی":{"id":840,"slug":"یونسی","parent_id":207,"name":"یونسی","lat":"۳۴.۸۰۵۳۰۰۰۰","long":"۵۸.۴۳۷۲۰۰۰۰","areas":{},"ostan":"استان-خراسان-رضوی"}}},"استان-خوزستان":{"id":208,"slug":"استان-خوزستان","parent_id":0,"name":"خوزستان","lat":"۳۱.۴۳۶۰۰۰۰۰","long":"۴۹.۰۴۱۳۰۰۰۰","areas":[],"ostan":"","cities":{"آبادان":{"id":12,"slug":"آبادان","parent_id":208,"name":"آبادان","lat":"۳۰.۳۴۷۳۰۰۰۰","long":"۴۸.۲۹۳۴۰۰۰۰","areas":{"احمدآباد":{"name":"احمدآباد","id":1,"lat":0,"long":0},"امیری":{"name":"امیری","id":2,"lat":0,"long":0},"کویکارگر":{"name":"کوی کارگر","id":3,"lat":0,"long":0},"امیرآباد":{"name":"امیرآباد","id":4,"lat":0,"long":0},"بریم":{"name":"بریم","id":5,"lat":0,"long":0},"بوارده":{"name":"بوارده","id":6,"lat":0,"long":0},"کویولایت":{"name":"کوی ولایت","id":7,"lat":0,"long":0},"کویلاله":{"name":"کوی لاله","id":8,"lat":0,"long":0},"هزاریها":{"name":"هزاری ها","id":9,"lat":0,"long":0},"هلندیها":{"name":"هلندی ها","id":10,"lat":0,"long":0},"کویبهار":{"name":"کوی بهار","id":11,"lat":0,"long":0},"کویقدس":{"name":"کوی قدس","id":12,"lat":0,"long":0},"کویبهارستان":{"name":"کوی بهارستان","id":13,"lat":0,"long":0},"کویگلستان":{"name":"کوی گلستان","id":14,"lat":0,"long":0},"کویذوالفقاری":{"name":"کوی ذوالفقاری","id":15,"lat":0,"long":0},"کویملت":{"name":"کوی ملت","id":16,"lat":0,"long":0},"کویبهمن":{"name":"کوی بهمن","id":17,"lat":0,"long":0},"کویولیعصر":{"name":"کوی ولیعصر","id":18,"lat":0,"long":0},"تانکفارم":{"name":"تانک فارم","id":19,"lat":0,"long":0},"جمشیدآباد":{"name":"جمشید آباد","id":20,"lat":0,"long":0},"سرویسقنواتی":{"name":"سرویس قنواتی","id":21,"lat":0,"long":0},"هفتصددستگاه":{"name":"هفتصد دستگاه","id":22,"lat":0,"long":0},"کویفرهنگیان":{"name":"کوی فرهنگیان","id":23,"lat":0,"long":0},"بهار":{"name":"بهار","id":24,"lat":0,"long":0}},"ostan":"استان-خوزستان"},"اندیمشک":{"id":35,"slug":"اندیمشک","parent_id":208,"name":"اندیمشک","lat":"۳۲.۴۵۳۸۰۰۰۰","long":"۴۸.۳۴۸۹۰۰۰۰","areas":{"بلوارپاسارگاد":{"name":"بلوار پاسارگاد","id":1,"lat":0,"long":0},"کوینیرو":{"name":"کوی نیرو","id":2,"lat":0,"long":0},"پارکبزرگآزادگان":{"name":"پارک بزرگ آزادگان","id":3,"lat":0,"long":0},"بلوارقدس":{"name":"بلوار قدس","id":4,"lat":0,"long":0},"شهیدروشنی":{"name":"شهید روشنی","id":5,"lat":0,"long":0},"بیستوپنجمتریقدس":{"name":"بیست و پنج متری قدس","id":6,"lat":0,"long":0},"صیادشیرازی":{"name":"صیاد شیرازی","id":7,"lat":0,"long":0},"شرکتنفت":{"name":"شرکت نفت","id":8,"lat":0,"long":0},"ایستگاهراهآهن":{"name":"ایستگاه راه آهن","id":9,"lat":0,"long":0},"بلوارشهیدجوادملکی":{"name":"بلوار شهید جواد ملکی","id":10,"lat":0,"long":0},"شهیدکرامت":{"name":"شهید کرامت","id":11,"lat":0,"long":0},"شهیدباهنر":{"name":"شهید باهنر","id":12,"lat":0,"long":0},"عاشورا":{"name":"عاشورا","id":13,"lat":0,"long":0},"یاس":{"name":"یاس","id":14,"lat":0,"long":0},"کویولایت":{"name":"کوی ولایت","id":15,"lat":0,"long":0},"مهرشهر":{"name":"مهر شهر","id":16,"lat":0,"long":0},"شهیدبهشتی":{"name":"شهید بهشتی","id":17,"lat":0,"long":0},"فدک":{"name":"فدک","id":18,"lat":0,"long":0},"شهیدچمران":{"name":"شهید چمران","id":19,"lat":0,"long":0},"خیابانامامخمینی":{"name":"خیابان امام خمینی","id":20,"lat":0,"long":0},"پیروزی":{"name":"پیروزی","id":21,"lat":0,"long":0}},"ostan":"استان-خوزستان"},"اهواز":{"id":37,"slug":"اهواز","parent_id":208,"name":"اهواز","lat":"۳۱.۳۱۸۳۰۰۰۰","long":"۴۸.۶۷۰۶۰۰۰۰","areas":{"آریاشهر":{"name":"آریاشهر","id":802,"lat":0,"long":0},"باهنر":{"name":"باهنر","id":805,"lat":0,"long":0},"بهارستان":{"name":"بهارستان","id":806,"lat":0,"long":0},"پردیس":{"name":"پردیس","id":808,"lat":0,"long":0},"پیروزی":{"name":"پیروزی","id":809,"lat":0,"long":0},"زرگان":{"name":"زرگان","id":813,"lat":0,"long":0},"زیباشهر":{"name":"زیباشهر","id":814,"lat":0,"long":0},"زیتونکارمندی":{"name":"زیتون کارمندی","id":816,"lat":0,"long":0},"سیصددستگاه":{"name":"سیصد دستگاه","id":818,"lat":0,"long":0},"شهرکآغاجری":{"name":"شهرک آغاجری","id":820,"lat":0,"long":0},"شهرکحفاری":{"name":"شهرک حفاری","id":821,"lat":0,"long":0},"شهرکنفت":{"name":"شهرک نفت","id":823,"lat":0,"long":0},"طالقانی":{"name":"طالقانی","id":825,"lat":0,"long":0},"فازدوپاداد":{"name":"فاز دو پاداد","id":826,"lat":0,"long":0},"فرهنگشهر":{"name":"فرهنگ شهر","id":828,"lat":0,"long":0},"کانتکس":{"name":"کانتکس","id":830,"lat":0,"long":0},"کمپلویشمالی(لشکر)":{"name":"کمپلوی شمالی (لشکر)","id":832,"lat":0,"long":0},"کوتعبدالله":{"name":"کوت عبدالله","id":833,"lat":0,"long":0},"کویرمضان":{"name":"کوی رمضان","id":835,"lat":0,"long":0},"کویسلطانمنش":{"name":"کوی سلطان منش","id":836,"lat":0,"long":0},"کویفرهنگیان":{"name":"کوی فرهنگیان","id":838,"lat":0,"long":0},"کویمهدیس":{"name":"کوی مهدیس","id":840,"lat":0,"long":0},"کوینبوت":{"name":"کوی نبوت","id":841,"lat":0,"long":0},"کیانآباد":{"name":"کیان آباد","id":843,"lat":0,"long":0},"کیانشهر":{"name":"کیانشهر","id":845,"lat":0,"long":0},"گلستان":{"name":"گلستان","id":846,"lat":0,"long":0},"معینزاده":{"name":"معین زاده","id":848,"lat":0,"long":0},"ملیراه":{"name":"ملی راه","id":849,"lat":0,"long":0},"نیوسایت":{"name":"نیوسایت","id":851,"lat":0,"long":0},"امانیه":{"name":"امانیه","id":804,"lat":0,"long":0},"پادادشهر":{"name":"پادادشهر","id":807,"lat":0,"long":0},"حصیرآباد":{"name":"حصیرآباد","id":810,"lat":0,"long":0},"دغاغله":{"name":"دغاغله","id":811,"lat":0,"long":0},"رسالت":{"name":"رسالت","id":812,"lat":0,"long":0},"زیتونکارگری":{"name":"زیتون کارگری","id":815,"lat":0,"long":0},"سپیدار":{"name":"سپیدار","id":817,"lat":0,"long":0},"شریعتیجنوبی":{"name":"شریعتی جنوبی","id":819,"lat":0,"long":0},"شهرکدانشگاه":{"name":"شهرک دانشگاه","id":822,"lat":0,"long":0},"صددستگاه":{"name":"صد دستگاه","id":824,"lat":0,"long":0},"فازیکپادادشهر":{"name":"فاز یک پادادشهر","id":827,"lat":0,"long":0},"فولادشهر":{"name":"فولادشهر","id":829,"lat":0,"long":0},"کمپلوجنوبی(کویانقلاب)":{"name":"کمپلو جنوبی (کوی انقلاب)","id":831,"lat":0,"long":0},"کوروش(کویملت)":{"name":"کوروش (کوی ملت)","id":834,"lat":0,"long":0},"کویعلوی":{"name":"کوی علوی","id":837,"lat":0,"long":0},"کویمدرس":{"name":"کوی مدرس","id":839,"lat":0,"long":0},"کوینفت":{"name":"کوی نفت","id":842,"lat":0,"long":0},"کیانپارس":{"name":"کیانپارس","id":844,"lat":0,"long":0},"لشکرآباد":{"name":"لشکرآباد","id":847,"lat":0,"long":0},"نادری":{"name":"نادری","id":850,"lat":0,"long":0},"یوسفی":{"name":"یوسفی","id":852,"lat":0,"long":0}},"ostan":"استان-خوزستان"},"ایذه":{"id":38,"slug":"ایذه","parent_id":208,"name":"ایذه","lat":"۳۱.۸۲۴۰۰۰۰۰","long":"۴۹.۸۷۰۱۰۰۰۰","areas":{"بلوارشهیددستغیب":{"name":"بلوار شهید دستغیب","id":1,"lat":0,"long":0},"بلوارانقلاب":{"name":"بلوار انقلاب","id":2,"lat":0,"long":0},"بلوارزاگرس":{"name":"بلوار زاگرس","id":3,"lat":0,"long":0},"پارکشهر":{"name":"پارک شهر","id":4,"lat":0,"long":0},"میدانولایت":{"name":"میدان ولایت","id":5,"lat":0,"long":0},"بلوارفلسطین":{"name":"بلوار فلسطین","id":6,"lat":0,"long":0},"بلوارچویل":{"name":"بلوار چویل","id":7,"lat":0,"long":0},"بلوارطالقانی":{"name":"بلوار طالقانی","id":8,"lat":0,"long":0},"خیابانجهاد":{"name":"خیابان جهاد","id":9,"lat":0,"long":0},"خیابانآیتالهصدوقی":{"name":"خیابان آیت اله صدوقی","id":10,"lat":0,"long":0},"حافظشمالی":{"name":"حافظ شمالی","id":11,"lat":0,"long":0},"حافظجنوبی":{"name":"حافظ جنوبی","id":12,"lat":0,"long":0},"باهنر":{"name":"باهنر","id":13,"lat":0,"long":0},"محمدرسوالالله":{"name":"محمد رسوال الله","id":14,"lat":0,"long":0},"تختی":{"name":"تختی","id":15,"lat":0,"long":0},"امامخمینی":{"name":"امام خمینی","id":16,"lat":0,"long":0},"شهرکارغوان":{"name":"شهرک ارغوان","id":17,"lat":0,"long":0}},"ostan":"استان-خوزستان"},"بندر-امام-خمینی":{"id":51,"slug":"بندر-امام-خمینی","parent_id":208,"name":"بندر امام خمینی","lat":"۳۰.۴۴۷۲۰۰۰۰","long":"۴۹.۰۷۱۶۰۰۰۰","areas":{},"ostan":"استان-خوزستان"},"بندر-ماهشهر":{"id":57,"slug":"بندر-ماهشهر","parent_id":208,"name":"بندر ماهشهر","lat":"۳۰.۵۶۲۰۰۰۰۰","long":"۴۹.۱۷۲۷۰۰۰۰","areas":{},"ostan":"استان-خوزستان"},"بهبهان":{"id":60,"slug":"بهبهان","parent_id":208,"name":"بهبهان","lat":"۳۰.۵۹۱۲۰۰۰۰","long":"۵۰.۲۳۴۷۰۰۰۰","areas":{},"ostan":"استان-خوزستان"},"خرمشهر":{"id":83,"slug":"خرمشهر","parent_id":208,"name":"خرمشهر","lat":"۳۰.۴۲۵۶۰۰۰۰","long":"۴۸.۱۸۹۱۰۰۰۰","areas":{},"ostan":"استان-خوزستان"},"دزفول":{"id":89,"slug":"دزفول","parent_id":208,"name":"دزفول","lat":"۳۲.۳۸۳۱۰۰۰۰","long":"۴۸.۴۲۳۶۰۰۰۰","areas":{},"ostan":"استان-خوزستان"},"رامهرمز":{"id":96,"slug":"رامهرمز","parent_id":208,"name":"رامهرمز","lat":"۳۱.۲۷۷۷۰۰۰۰","long":"۴۹.۵۹۹۳۰۰۰۰","areas":{},"ostan":"استان-خوزستان"},"سوسنگرد":{"id":116,"slug":"سوسنگرد","parent_id":208,"name":"سوسنگرد","lat":"۳۱.۵۵۶۷۰۰۰۰","long":"۴۸.۱۶۹۷۰۰۰۰","areas":{},"ostan":"استان-خوزستان"},"شوش":{"id":122,"slug":"شوش","parent_id":208,"name":"شوش","lat":"۳۲.۱۹۵۸۰۰۰۰","long":"۴۸.۲۵۴۳۰۰۰۰","areas":{},"ostan":"استان-خوزستان"},"شوشتر":{"id":123,"slug":"شوشتر","parent_id":208,"name":"شوشتر","lat":"۳۲.۰۵۲۱۰۰۰۰","long":"۴۸.۸۴۹۸۰۰۰۰","areas":{},"ostan":"استان-خوزستان"},"مسجد-سلیمان":{"id":169,"slug":"مسجد-سلیمان","parent_id":208,"name":"مسجد سلیمان","lat":"۳۱.۹۶۳۴۰۰۰۰","long":"۴۹.۲۸۹۲۰۰۰۰","areas":{},"ostan":"استان-خوزستان"},"آغاجاری":{"id":1066,"slug":"آغاجاری","parent_id":208,"name":"آغاجاری","lat":"۳۰.۶۹۹۷۰۰۰۰","long":"۴۹.۸۲۹۷۰۰۰۰","areas":{},"ostan":"استان-خوزستان"},"اروندکنار":{"id":1067,"slug":"اروندکنار","parent_id":208,"name":"اروندکنار","lat":"۲۹.۹۷۸۰۰۰۰۰","long":"۴۸.۵۱۶۸۰۰۰۰","areas":{},"ostan":"استان-خوزستان"},"الوان":{"id":1068,"slug":"الوان","parent_id":208,"name":"الوان","lat":"۳۱.۸۷۴۱۰۰۰۰","long":"۴۸.۳۴۱۱۰۰۰۰","areas":{},"ostan":"استان-خوزستان"},"امیدیه":{"id":1069,"slug":"امیدیه","parent_id":208,"name":"امیدیه","lat":"۳۰.۷۵۵۶۰۰۰۰","long":"۴۹.۷۱۲۲۰۰۰۰","areas":{},"ostan":"استان-خوزستان"},"باغ-ملک":{"id":1070,"slug":"باغ-ملک","parent_id":208,"name":"باغ ملک","lat":"۳۱.۵۱۳۳۰۰۰۰","long":"۴۹.۸۹۰۴۰۰۰۰","areas":{},"ostan":"استان-خوزستان"},"بستان":{"id":1071,"slug":"بستان","parent_id":208,"name":"بستان","lat":"۳۱.۷۲۱۶۰۰۰۰","long":"۴۷.۹۸۱۱۰۰۰۰","areas":{},"ostan":"استان-خوزستان"},"ترکالکی":{"id":1072,"slug":"ترکالکی","parent_id":208,"name":"ترکالکی","lat":"۳۲.۲۴۲۶۰۰۰۰","long":"۴۸.۸۴۶۳۰۰۰۰","areas":{},"ostan":"استان-خوزستان"},"جایزان":{"id":1073,"slug":"جایزان","parent_id":208,"name":"جایزان","lat":"۳۰.۸۷۴۹۰۰۰۰","long":"۴۹.۸۵۴۴۰۰۰۰","areas":{},"ostan":"استان-خوزستان"},"چمران":{"id":1074,"slug":"چمران","parent_id":208,"name":"چمران","lat":"۳۰.۷۱۳۵۰۰۰۰","long":"۴۹.۱۷۶۸۰۰۰۰","areas":{},"ostan":"استان-خوزستان"},"چویبده":{"id":1075,"slug":"چویبده","parent_id":208,"name":"چویبده","lat":"۳۰.۲۰۰۰۰۰۰۰","long":"۴۸.۵۵۳۱۰۰۰۰","areas":{},"ostan":"استان-خوزستان"},"حر":{"id":1076,"slug":"حر","parent_id":208,"name":"حر","lat":"۳۲.۱۴۴۲۰۰۰۰","long":"۴۸.۳۹۰۵۰۰۰۰","areas":{},"ostan":"استان-خوزستان"},"حسینیه":{"id":1077,"slug":"حسینیه","parent_id":208,"name":"حسینیه","lat":"۳۲.۶۶۳۳۰۰۰۰","long":"۴۸.۲۴۵۶۰۰۰۰","areas":{},"ostan":"استان-خوزستان"},"حمزه":{"id":1078,"slug":"حمزه","parent_id":208,"name":"حمزه","lat":"۳۲.۳۹۶۲۰۰۰۰","long":"۴۸.۵۷۸۵۰۰۰۰","areas":{},"ostan":"استان-خوزستان"},"حمیدیه":{"id":1079,"slug":"حمیدیه","parent_id":208,"name":"حمیدیه","lat":"۳۱.۴۸۱۶۰۰۰۰","long":"۴۸.۴۳۲۳۰۰۰۰","areas":{},"ostan":"استان-خوزستان"},"دارخوین":{"id":1080,"slug":"دارخوین","parent_id":208,"name":"دارخوین","lat":"۳۰.۷۴۴۹۰۰۰۰","long":"۴۸.۴۲۹۲۰۰۰۰","areas":{},"ostan":"استان-خوزستان"},"دزآب":{"id":1081,"slug":"دزآب","parent_id":208,"name":"دزآب","lat":"۳۲.۲۸۷۹۰۰۰۰","long":"۴۸.۴۲۸۲۰۰۰۰","areas":{},"ostan":"استان-خوزستان"},"دهدز":{"id":1082,"slug":"دهدز","parent_id":208,"name":"دهدز","lat":"۳۱.۷۰۹۹۰۰۰۰","long":"۵۰.۲۸۸۵۰۰۰۰","areas":{},"ostan":"استان-خوزستان"},"رامشیر":{"id":1083,"slug":"رامشیر","parent_id":208,"name":"رامشیر","lat":"۳۰.۸۹۲۷۰۰۰۰","long":"۴۹.۴۰۸۸۰۰۰۰","areas":{},"ostan":"استان-خوزستان"},"رفیع":{"id":1084,"slug":"رفیع","parent_id":208,"name":"رفیع","lat":"۳۱.۵۹۷۴۰۰۰۰","long":"۴۷.۸۹۴۱۰۰۰۰","areas":{},"ostan":"استان-خوزستان"},"زهره":{"id":1085,"slug":"زهره","parent_id":208,"name":"زهره","lat":"۳۰.۴۶۸۱۰۰۰۰","long":"۴۹.۶۸۳۰۰۰۰۰","areas":{},"ostan":"استان-خوزستان"},"سالند":{"id":1086,"slug":"سالند","parent_id":208,"name":"سالند","lat":"۳۲.۴۹۴۰۰۰۰۰","long":"۴۸.۸۳۴۳۰۰۰۰","areas":{},"ostan":"استان-خوزستان"},"سردشت":{"id":1087,"slug":"سردشت","parent_id":208,"name":"سردشت","lat":"۳۰.۳۲۷۲۵۸۷۵","long":"۵۰.۲۱۷۰۴۰۰۲","areas":{},"ostan":"استان-خوزستان"},"شادگان":{"id":1088,"slug":"شادگان","parent_id":208,"name":"شادگان","lat":"۳۰.۶۵۴۱۳۷۸۲","long":"۴۸.۶۵۴۸۶۱۱۰","areas":{},"ostan":"استان-خوزستان"},"شاوور":{"id":1089,"slug":"شاوور","parent_id":208,"name":"شاوور","lat":"۳۲.۰۵۸۶۰۰۰۰","long":"۴۸.۳۰۰۸۰۰۰۰","areas":{},"ostan":"استان-خوزستان"},"شرافت":{"id":1090,"slug":"شرافت","parent_id":208,"name":"شرافت","lat":"۳۲.۰۸۸۰۰۰۰۰","long":"۴۸.۷۶۷۷۰۰۰۰","areas":{},"ostan":"استان-خوزستان"},"شیبان":{"id":1091,"slug":"شیبان","parent_id":208,"name":"شیبان","lat":"۳۱.۳۸۴۵۰۰۰۰","long":"۴۸.۷۸۷۱۰۰۰۰","areas":{},"ostan":"استان-خوزستان"},"صالح-شهر":{"id":1092,"slug":"صالح-شهر","parent_id":208,"name":"صالح شهر","lat":"۳۲.۲۱۳۶۰۰۰۰","long":"۴۸.۶۷۲۱۰۰۰۰","areas":{},"ostan":"استان-خوزستان"},"صفی-آباد":{"id":1093,"slug":"صفی-آباد","parent_id":208,"name":"صفی آباد","lat":"۳۲.۲۴۷۸۰۰۰۰","long":"۴۸.۴۲۱۵۰۰۰۰","areas":{},"ostan":"استان-خوزستان"},"صیدون":{"id":1094,"slug":"صیدون","parent_id":208,"name":"صیدون","lat":"۳۱.۳۶۵۷۰۰۰۰","long":"۵۰.۰۸۱۳۰۰۰۰","areas":{},"ostan":"استان-خوزستان"},"قلعه-تل":{"id":1095,"slug":"قلعه-تل","parent_id":208,"name":"قلعه تل","lat":"۳۱.۶۳۱۴۰۰۰۰","long":"۴۹.۸۹۰۱۰۰۰۰","areas":{},"ostan":"استان-خوزستان"},"قلعه-خواجه":{"id":1096,"slug":"قلعه-خواجه","parent_id":208,"name":"قلعه خواجه","lat":"۳۲.۲۰۵۲۰۰۰۰","long":"۴۹.۴۴۸۷۰۰۰۰","areas":{},"ostan":"استان-خوزستان"},"گتوند":{"id":1097,"slug":"گتوند","parent_id":208,"name":"گتوند","lat":"۳۲.۲۴۷۲۰۰۰۰","long":"۴۸.۸۱۷۸۰۰۰۰","areas":{},"ostan":"استان-خوزستان"},"لالی":{"id":1098,"slug":"لالی","parent_id":208,"name":"لالی","lat":"۳۲.۳۲۹۸۰۰۰۰","long":"۴۹.۰۹۲۹۰۰۰۰","areas":{},"ostan":"استان-خوزستان"},"ملاثانی":{"id":1099,"slug":"ملاثانی","parent_id":208,"name":"ملاثانی","lat":"۳۱.۵۸۵۳۰۰۰۰","long":"۴۸.۸۸۷۰۰۰۰۰","areas":{},"ostan":"استان-خوزستان"},"میانرود":{"id":1100,"slug":"میانرود","parent_id":208,"name":"میانرود","lat":"۳۲.۲۲۷۸۰۰۰۰","long":"۴۸.۴۲۴۴۰۰۰۰","areas":{},"ostan":"استان-خوزستان"},"مینوشهر":{"id":1101,"slug":"مینوشهر","parent_id":208,"name":"مینوشهر","lat":"۳۰.۳۶۰۶۰۰۰۰","long":"۴۸.۲۱۰۳۰۰۰۰","areas":{},"ostan":"استان-خوزستان"},"هفتگل":{"id":1102,"slug":"هفتگل","parent_id":208,"name":"هفتگل","lat":"۳۱.۴۴۵۶۰۰۰۰","long":"۴۹.۵۳۳۱۰۰۰۰","areas":{},"ostan":"استان-خوزستان"},"هندیجان":{"id":1103,"slug":"هندیجان","parent_id":208,"name":"هندیجان","lat":"۳۰.۲۲۳۶۰۰۰۰","long":"۴۹.۷۱۱۳۰۰۰۰","areas":{},"ostan":"استان-خوزستان"},"هویزه":{"id":1104,"slug":"هویزه","parent_id":208,"name":"هویزه","lat":"۳۱.۴۶۰۶۰۰۰۰","long":"۴۸.۰۷۷۴۰۰۰۰","areas":{},"ostan":"استان-خوزستان"},"ویس":{"id":1105,"slug":"ویس","parent_id":208,"name":"ویس","lat":"۳۱.۴۸۴۱۰۰۰۰","long":"۴۸.۸۷۴۵۰۰۰۰","areas":{},"ostan":"استان-خوزستان"}}},"استان-آذربایجان-شرقی":{"id":209,"slug":"استان-آذربایجان-شرقی","parent_id":0,"name":"آذربایجان شرقی","lat":"۳۷.۹۰۳۶۰۰۰۰","long":"۴۶.۲۶۸۲۰۰۰۰","areas":[],"ostan":"","cities":{"تبریز":{"id":10,"slug":"تبریز","parent_id":209,"name":"تبریز","lat":"۳۸.۰۹۶۲۰۰۰۰","long":"۴۶.۲۷۳۸۰۰۰۰","areas":{"آخونی":{"name":"آخونی","id":855,"lat":38.08234143,"long":46.25097818},"ارم":{"name":"ارم","id":856,"lat":38.11085537,"long":46.28921983},"اسلامآباد":{"name":"اسلام آباد","id":858,"lat":38.09928252,"long":46.25746337},"الهیه":{"name":"الهیه","id":860,"lat":38.07683037,"long":46.37747606},"امامخمینی":{"name":"امام خمینی","id":861,"lat":38.08983054,"long":46.23629333},"اندیشه":{"name":"اندیشه","id":863,"lat":38.03483198,"long":46.20723862},"اهراب":{"name":"اهراب","id":865,"lat":38.07240394,"long":46.28051217},"بارنج":{"name":"بارنج","id":866,"lat":38.06649562,"long":46.37471261},"باغشمال":{"name":"باغ شمال","id":868,"lat":38.06097564,"long":46.30266074},"باغچهبان":{"name":"باغچه بان","id":870,"lat":38.0228569,"long":46.3759676},"باغمیشه2":{"name":"باغمیشه 2","id":872,"lat":38.07595768,"long":46.38434918},"برنجیان":{"name":"برنجیان","id":873,"lat":38.06822477,"long":46.24684272},"بهاران":{"name":"بهاران","id":874,"lat":38.03372569,"long":46.34221918},"بهشتیمنطقه1":{"name":"بهشتی - منطقه 1","id":876,"lat":38.07130176,"long":46.30417915},"بیلان‌کوه":{"name":"بیلان‌ کوه","id":878,"lat":38.07387571,"long":46.33289809},"پرواز":{"name":"پرواز","id":879,"lat":38.04083451,"long":46.36656029},"جلالیه":{"name":"جلالیه","id":881,"lat":38.06059686,"long":46.24974505},"چرنداب":{"name":"چرنداب","id":883,"lat":38.06589179,"long":46.28665266},"حافظ":{"name":"حافظ","id":885,"lat":38.06258403,"long":46.30366241},"حکمآباد":{"name":"حکم آباد","id":886,"lat":38.0920688,"long":46.25100569},"خاوران":{"name":"خاوران","id":887,"lat":38.01491,"long":46.41044467},"خیابان":{"name":"خیابان","id":889,"lat":38.06441875,"long":46.31495905},"دامپزشکی":{"name":"دامپزشکی","id":891,"lat":38.08130382,"long":46.2470985},"دیزلآباد":{"name":"دیزل آباد","id":893,"lat":38.06077491,"long":46.22289662},"راهآهن":{"name":"راه آهن","id":894,"lat":38.07731589,"long":46.23063996},"رشدیه":{"name":"رشدیه","id":896,"lat":38.08309432,"long":46.36304491},"رواسان":{"name":"رواسان","id":898,"lat":38.04573211,"long":46.19768276},"زعفرانیه":{"name":"زعفرانیه","id":899,"lat":38.0426223,"long":46.33919468},"زنگولهباغ":{"name":"زنگوله باغ","id":901,"lat":38.05824396,"long":46.26048487},"سرخاب":{"name":"سرخاب","id":903,"lat":38.09635466,"long":46.30817721},"سهند":{"name":"سهند","id":904,"lat":0,"long":0},"ششگلان":{"name":"ششگلان","id":906,"lat":38.08277191,"long":46.30659646},"شنبغازان":{"name":"شنب غازان","id":908,"lat":38.07776049,"long":46.23833227},"شهرکرازی":{"name":"شهرک رازی","id":909,"lat":38.0608265,"long":46.24013546},"صالحآباد":{"name":"صالح آباد","id":911,"lat":38.07712986,"long":46.35407876},"عموزینالدین":{"name":"عمو زین الدین","id":913,"lat":38.09801229,"long":46.25861624},"فرودگاه":{"name":"فرودگاه","id":915,"lat":38.1218152,"long":46.24326465},"قراملک":{"name":"قراملک","id":916,"lat":38.0926071,"long":46.21898981},"قورخانه":{"name":"قورخانه","id":918,"lat":38.03954252,"long":46.32957188},"کوجوار":{"name":"کوجوار","id":919,"lat":38.05983322,"long":46.13826506},"کویابریشم":{"name":"کوی ابریشم","id":921,"lat":38.03144202,"long":46.35881813},"کویفردوس":{"name":"کوی فردوس","id":923,"lat":38.02874796,"long":46.37111329},"گلشهر":{"name":"گلشهر","id":925,"lat":38.03480226,"long":46.36874257},"گلکار":{"name":"گلکار","id":926,"lat":38.06545925,"long":46.33747524},"لیلآباد":{"name":"لیل آباد","id":928,"lat":38.06776398,"long":46.26786415},"مارالان":{"name":"مارالان","id":929,"lat":38.05606838,"long":46.31706871},"مرزداران":{"name":"مرزداران","id":931,"lat":38.03532937,"long":46.39582686},"منصور":{"name":"منصور","id":933,"lat":38.07548942,"long":46.30792551},"منظریه":{"name":"منظریه","id":934,"lat":38.05068406,"long":46.27225217},"نارمک":{"name":"نارمک","id":936,"lat":38.06092767,"long":46.38718799},"نصر":{"name":"نصر","id":937,"lat":38.05456115,"long":46.38836357},"نور":{"name":"نور","id":939,"lat":38.05842358,"long":46.23225799},"ولیامر":{"name":"ولی امر","id":940,"lat":38.0833577,"long":46.35046144},"ولیعصر2":{"name":"ولیعصر 2","id":942,"lat":38.0622621,"long":46.3809514},"ویلاشهر":{"name":"ویلاشهر","id":944,"lat":38.03737598,"long":46.34911259},"یاغچیان":{"name":"یاغچیان","id":945,"lat":38.03097727,"long":46.38099962},"آخماقایا":{"name":"آخماقایا","id":854,"lat":38.03063131,"long":46.18733873},"استادان":{"name":"استادان","id":857,"lat":38.04512022,"long":46.31954097},"الهیپرست":{"name":"الهی پرست","id":859,"lat":38.04920421,"long":46.34817964},"امیرخیز":{"name":"امیر خیز","id":862,"lat":38.10159466,"long":46.2783258},"انقلاب":{"name":"انقلاب","id":864,"lat":38.04799468,"long":46.29736237},"بازار":{"name":"بازار","id":867,"lat":38.08458908,"long":46.29306687},"باغیعقوب":{"name":"باغ یعقوب","id":869,"lat":38.00626632,"long":46.43996419},"باغمیشهمنطقه1":{"name":"باغمیشه - منطقه 1","id":871,"lat":38.0813169,"long":46.3301463},"بهارستان":{"name":"بهارستان","id":875,"lat":38.03377536,"long":46.3620001},"بهشتیمنطقه6":{"name":"بهشتی - منطقه 6","id":877,"lat":38.10122502,"long":46.22667812},"پلسنگی":{"name":"پل سنگی","id":880,"lat":38.07649857,"long":46.32043767},"جمشیدآباد":{"name":"جمشیدآباد","id":882,"lat":38.0984411,"long":46.25152057},"چوست‌دوزان":{"name":"چوست‌ دوزان","id":884,"lat":38.09353671,"long":46.27331731},"خطیب":{"name":"خطیب","id":888,"lat":38.06808585,"long":46.24069255},"دادگستری":{"name":"دادگستری","id":890,"lat":38.02651314,"long":46.35095557},"دوهچی":{"name":"دوه چی","id":892,"lat":38.08643818,"long":46.29850025},"رجاییشهر":{"name":"رجایی شهر","id":895,"lat":38.04349664,"long":46.34800903},"رضوانشهر":{"name":"رضوانشهر","id":897,"lat":38.11796035,"long":46.28427581},"زمزم":{"name":"زمزم","id":900,"lat":38.04645641,"long":46.31205055},"ساریزمین":{"name":"ساری زمین","id":902,"lat":38.04024111,"long":46.32838547},"سیلاب":{"name":"سیلاب","id":905,"lat":38.08607615,"long":46.31822464},"شمسآباد":{"name":"شمس آباد","id":907,"lat":38.03122349,"long":46.3739526},"شهریار":{"name":"شهریار","id":910,"lat":38.06340437,"long":46.36170671},"طالقانی":{"name":"طالقانی","id":912,"lat":38.05314366,"long":46.25727459},"فرهنگیان":{"name":"فرهنگیان","id":914,"lat":38.04588108,"long":46.33291562},"قرهآغاج":{"name":"قره آغاج","id":917,"lat":38.08239571,"long":46.25096198},"کوچهباغ":{"name":"کوچه باغ","id":920,"lat":38.08225234,"long":46.26829346},"کویرسالت":{"name":"کوی رسالت","id":922,"lat":38.06560689,"long":46.24664044},"کویلاله":{"name":"کوی لاله","id":924,"lat":38.05606217,"long":46.22302373},"لاکدیزک":{"name":"لاک دیزک","id":927,"lat":38.10642183,"long":46.24631339},"مخابرات":{"name":"مخابرات","id":930,"lat":38.04449185,"long":46.35543161},"ملازینال":{"name":"ملازینال","id":932,"lat":38.08632269,"long":46.3174191},"میلاد":{"name":"میلاد","id":935,"lat":38.07042273,"long":46.25067232},"نوبر":{"name":"نوبر","id":938,"lat":38.07290151,"long":46.31158899},"ولیعصر":{"name":"ولیعصر","id":941,"lat":38.05677657,"long":46.36170376},"ولیعصرجنوبی":{"name":"ولیعصر جنوبی","id":943,"lat":38.0483314,"long":46.36221348},"یوسفآباد":{"name":"یوسف آباد","id":946,"lat":38.08966552,"long":46.33084277}},"ostan":"استان-آذربایجان-شرقی"},"آذرشهر":{"id":16,"slug":"آذرشهر","parent_id":209,"name":"آذرشهر","lat":"۳۷.۷۴۴۳۰۰۰۰","long":"۴۵.۹۸۷۲۰۰۰۰","areas":{"ولیعصر":{"name":"ولیعصر","id":1,"lat":0,"long":0},"دیزجچراغ":{"name":"دیزج چراغ","id":2,"lat":0,"long":0},"گوگان":{"name":"گوگان","id":3,"lat":0,"long":0},"خیابانسعدی":{"name":"خیابان سعدی","id":4,"lat":0,"long":0},"آخیجهان":{"name":"آخی جهان","id":5,"lat":0,"long":0},"خانمیر":{"name":"خانمیر","id":6,"lat":0,"long":0},"ینگجه":{"name":"ینگجه","id":7,"lat":0,"long":0},"غلهزار":{"name":"غله زار","id":8,"lat":0,"long":0},"هلالاحمر":{"name":"هلال احمر","id":9,"lat":0,"long":0},"شهیدمدنی":{"name":"شهید مدنی","id":10,"lat":0,"long":0},"امیرقلی":{"name":"امیر قلی","id":11,"lat":0,"long":0}},"ostan":"استان-آذربایجان-شرقی"},"اهر":{"id":36,"slug":"اهر","parent_id":209,"name":"اهر","lat":"۳۸.۴۸۹۴۰۰۰۰","long":"۴۷.۰۶۸۴۰۰۰۰","areas":{"فرهنگیان":{"name":"فرهنگیان","id":1,"lat":0,"long":0},"باغشمس":{"name":"باغ شمس","id":2,"lat":0,"long":0},"کویمعماران":{"name":"کوی معماران","id":3,"lat":0,"long":0},"حزبالله":{"name":"حزب الله","id":4,"lat":0,"long":0},"کویعارف":{"name":"کوی عارف","id":5,"lat":0,"long":0},"شهرکشیخشهاب":{"name":"شهرک شیخ شهاب","id":6,"lat":0,"long":0}},"ostan":"استان-آذربایجان-شرقی"},"بناب":{"id":50,"slug":"بناب","parent_id":209,"name":"بناب","lat":"۳۷.۳۴۴۶۰۰۰۰","long":"۴۶.۰۵۶۵۰۰۰۰","areas":{},"ostan":"استان-آذربایجان-شرقی"},"سراب":{"id":107,"slug":"سراب","parent_id":209,"name":"سراب","lat":"۳۷.۹۴۲۹۰۰۰۰","long":"۴۷.۵۳۸۴۰۰۰۰","areas":{},"ostan":"استان-آذربایجان-شرقی"},"سهند":{"id":117,"slug":"سهند","parent_id":209,"name":"سهند","lat":"۳۷.۷۲۹۷۰۰۰۰","long":"۴۶.۵۰۰۱۰۰۰۰","areas":{},"ostan":"استان-آذربایجان-شرقی"},"مراغه":{"id":166,"slug":"مراغه","parent_id":209,"name":"مراغه","lat":"۳۷.۳۸۹۲۰۰۰۰","long":"۴۶.۲۵۳۴۰۰۰۰","areas":{},"ostan":"استان-آذربایجان-شرقی"},"مرند":{"id":167,"slug":"مرند","parent_id":209,"name":"مرند","lat":"۳۸.۴۲۷۸۰۰۰۰","long":"۴۵.۷۶۲۱۰۰۰۰","areas":{},"ostan":"استان-آذربایجان-شرقی"},"میانه":{"id":174,"slug":"میانه","parent_id":209,"name":"میانه","lat":"۳۷.۴۲۶۴۰۰۰۰","long":"۴۷.۷۲۴۱۰۰۰۰","areas":{},"ostan":"استان-آذربایجان-شرقی"},"آبش-احمد":{"id":634,"slug":"آبش-احمد","parent_id":209,"name":"آبش احمد","lat":"۳۹.۰۴۸۴۰۰۰۰","long":"۴۷.۳۱۶۰۰۰۰۰","areas":{},"ostan":"استان-آذربایجان-شرقی"},"آغکند-قره-خضر":{"id":635,"slug":"آغکند-قره-خضر","parent_id":209,"name":"آغکند قره خضر","lat":"۳۷.۲۵۶۸۰۰۰۰","long":"۴۸.۰۶۴۸۰۰۰۰","areas":{},"ostan":"استان-آذربایجان-شرقی"},"اسکو":{"id":636,"slug":"اسکو","parent_id":209,"name":"اسکو","lat":"۳۷.۹۱۵۲۰۰۰۰","long":"۴۶.۱۱۹۹۰۰۰۰","areas":{},"ostan":"استان-آذربایجان-شرقی"},"ایلخچی":{"id":637,"slug":"ایلخچی","parent_id":209,"name":"ایلخچی","lat":"۳۷.۹۴۵۹۰۰۰۰","long":"۴۵.۹۷۱۹۰۰۰۰","areas":{},"ostan":"استان-آذربایجان-شرقی"},"باسمنج":{"id":638,"slug":"باسمنج","parent_id":209,"name":"باسمنج","lat":"۳۸.۰۱۱۴۰۰۰۰","long":"۴۶.۴۵۰۱۰۰۰۰","areas":{},"ostan":"استان-آذربایجان-شرقی"},"بخشایش":{"id":639,"slug":"بخشایش","parent_id":209,"name":"بخشایش","lat":"۳۸.۱۳۰۸۰۰۰۰","long":"۴۶.۹۴۷۰۰۰۰۰","areas":{},"ostan":"استان-آذربایجان-شرقی"},"بستان-آباد":{"id":640,"slug":"بستان-آباد","parent_id":209,"name":"بستان آباد","lat":"۳۷.۸۴۳۱۰۰۰۰","long":"۴۶.۸۳۰۴۰۰۰۰","areas":{},"ostan":"استان-آذربایجان-شرقی"},"بناب-مرند":{"id":641,"slug":"بناب-مرند","parent_id":209,"name":"بناب مرند","lat":"۳۸.۴۲۷۶۰۰۰۰","long":"۴۵.۹۰۷۵۰۰۰۰","areas":{},"ostan":"استان-آذربایجان-شرقی"},"ترک":{"id":642,"slug":"ترک","parent_id":209,"name":"ترک","lat":"۳۷.۶۱۶۲۰۰۰۰","long":"۴۷.۷۷۰۴۰۰۰۰","areas":{},"ostan":"استان-آذربایجان-شرقی"},"ترکمن-چای":{"id":643,"slug":"ترکمن-چای","parent_id":209,"name":"ترکمن چای","lat":"۳۷.۵۸۱۱۰۰۰۰","long":"۴۷.۳۸۹۷۰۰۰۰","areas":{},"ostan":"استان-آذربایجان-شرقی"},"تسوج":{"id":644,"slug":"تسوج","parent_id":209,"name":"تسوج","lat":"۳۸.۳۱۸۳۰۰۰۰","long":"۴۵.۳۵۰۱۰۰۰۰","areas":{},"ostan":"استان-آذربایجان-شرقی"},"تیکمه-داش":{"id":645,"slug":"تیکمه-داش","parent_id":209,"name":"تیکمه داش","lat":"۳۷.۷۲۵۸۰۰۰۰","long":"۴۶.۹۳۷۶۰۰۰۰","areas":{},"ostan":"استان-آذربایجان-شرقی"},"جلفا":{"id":646,"slug":"جلفا","parent_id":209,"name":"جلفا","lat":"۳۸.۹۳۰۷۰۰۰۰","long":"۴۵.۶۲۸۹۰۰۰۰","areas":{},"ostan":"استان-آذربایجان-شرقی"},"خاروانا":{"id":647,"slug":"خاروانا","parent_id":209,"name":"خاروانا","lat":"۳۸.۶۸۴۲۰۰۰۰","long":"۴۶.۱۷۰۰۰۰۰۰","areas":{},"ostan":"استان-آذربایجان-شرقی"},"خامنه":{"id":648,"slug":"خامنه","parent_id":209,"name":"خامنه","lat":"۳۸.۱۹۰۴۰۰۰۰","long":"۴۵.۶۳۸۳۰۰۰۰","areas":{},"ostan":"استان-آذربایجان-شرقی"},"خراجو":{"id":649,"slug":"خراجو","parent_id":209,"name":"خراجو","lat":"۳۷.۳۱۰۴۰۰۰۰","long":"۴۶.۵۲۹۷۰۰۰۰","areas":{},"ostan":"استان-آذربایجان-شرقی"},"خسروشاه":{"id":650,"slug":"خسروشاه","parent_id":209,"name":"خسروشاه","lat":"۳۷.۹۶۴۲۰۰۰۰","long":"۴۶.۰۵۱۷۰۰۰۰","areas":{},"ostan":"استان-آذربایجان-شرقی"},"خضرلو":{"id":651,"slug":"خضرلو","parent_id":209,"name":"خضرلو","lat":"۳۹.۰۴۲۲۰۰۰۰","long":"۴۴.۳۳۷۸۰۰۰۰","areas":{},"ostan":"استان-آذربایجان-شرقی"},"خمارلو":{"id":652,"slug":"خمارلو","parent_id":209,"name":"خمارلو","lat":"۳۹.۱۵۷۹۰۰۰۰","long":"۴۷.۰۳۱۳۰۰۰۰","areas":{},"ostan":"استان-آذربایجان-شرقی"},"خواجه":{"id":653,"slug":"خواجه","parent_id":209,"name":"خواجه","lat":"۳۸.۱۵۵۲۰۰۰۰","long":"۴۶.۵۸۴۴۰۰۰۰","areas":{},"ostan":"استان-آذربایجان-شرقی"},"دوزدوزان":{"id":654,"slug":"دوزدوزان","parent_id":209,"name":"دوزدوزان","lat":"۳۷.۹۴۹۵۰۰۰۰","long":"۴۷.۱۱۷۴۰۰۰۰","areas":{},"ostan":"استان-آذربایجان-شرقی"},"زرنق":{"id":655,"slug":"زرنق","parent_id":209,"name":"زرنق","lat":"۳۸.۰۹۲۶۰۰۰۰","long":"۴۷.۰۸۲۱۰۰۰۰","areas":{},"ostan":"استان-آذربایجان-شرقی"},"زنوز":{"id":656,"slug":"زنوز","parent_id":209,"name":"زنوز","lat":"۳۸.۵۸۹۹۰۰۰۰","long":"۴۵.۸۳۰۳۰۰۰۰","areas":{},"ostan":"استان-آذربایجان-شرقی"},"سردرود":{"id":658,"slug":"سردرود","parent_id":209,"name":"سردرود","lat":"۳۸.۰۲۵۵۰۰۰۰","long":"۴۶.۱۵۲۵۰۰۰۰","areas":{},"ostan":"استان-آذربایجان-شرقی"},"سیس":{"id":659,"slug":"سیس","parent_id":209,"name":"سیس","lat":"۳۸.۱۹۶۱۰۰۰۰","long":"۴۵.۸۱۷۹۰۰۰۰","areas":{},"ostan":"استان-آذربایجان-شرقی"},"سیه-رود":{"id":660,"slug":"سیه-رود","parent_id":209,"name":"سیه رود","lat":"۳۸.۸۷۰۲۰۰۰۰","long":"۴۶.۰۰۲۸۰۰۰۰","areas":{},"ostan":"استان-آذربایجان-شرقی"},"شبستر":{"id":661,"slug":"شبستر","parent_id":209,"name":"شبستر","lat":"۳۸.۱۸۰۲۰۰۰۰","long":"۴۵.۷۰۷۹۰۰۰۰","areas":{},"ostan":"استان-آذربایجان-شرقی"},"شربیان":{"id":662,"slug":"شربیان","parent_id":209,"name":"شربیان","lat":"۳۷.۸۸۱۴۰۰۰۰","long":"۴۷.۰۹۹۳۰۰۰۰","areas":{},"ostan":"استان-آذربایجان-شرقی"},"شرفخانه":{"id":663,"slug":"شرفخانه","parent_id":209,"name":"شرفخانه","lat":"۳۸.۱۸۱۷۰۰۰۰","long":"۴۵.۴۸۸۶۰۰۰۰","areas":{},"ostan":"استان-آذربایجان-شرقی"},"شندآباد":{"id":664,"slug":"شندآباد","parent_id":209,"name":"شندآباد","lat":"۳۸.۱۴۴۵۰۰۰۰","long":"۴۵.۶۲۷۷۰۰۰۰","areas":{},"ostan":"استان-آذربایجان-شرقی"},"صوفیان":{"id":665,"slug":"صوفیان","parent_id":209,"name":"صوفیان","lat":"۳۸.۲۷۹۴۰۰۰۰","long":"۴۵.۹۸۴۴۰۰۰۰","areas":{},"ostan":"استان-آذربایجان-شرقی"},"عجب-شیر":{"id":666,"slug":"عجب-شیر","parent_id":209,"name":"عجب شیر","lat":"۳۷.۴۷۸۸۰۰۰۰","long":"۴۵.۸۹۲۹۰۰۰۰","areas":{},"ostan":"استان-آذربایجان-شرقی"},"قره-آغاج":{"id":667,"slug":"قره-آغاج","parent_id":209,"name":"قره آغاج","lat":"۳۷.۱۲۸۷۰۰۰۰","long":"۴۶.۹۷۵۹۰۰۰۰","areas":{},"ostan":"استان-آذربایجان-شرقی"},"کشکسرای":{"id":668,"slug":"کشکسرای","parent_id":209,"name":"کشکسرای","lat":"۳۸.۴۶۳۵۰۰۰۰","long":"۴۵.۵۶۷۰۰۰۰۰","areas":{},"ostan":"استان-آذربایجان-شرقی"},"کلوانق":{"id":669,"slug":"کلوانق","parent_id":209,"name":"کلوانق","lat":"۳۸.۱۰۱۹۰۰۰۰","long":"۴۶.۹۹۵۴۰۰۰۰","areas":{},"ostan":"استان-آذربایجان-شرقی"},"کلیبر":{"id":670,"slug":"کلیبر","parent_id":209,"name":"کلیبر","lat":"۳۸.۸۶۴۲۰۰۰۰","long":"۴۷.۰۴۰۵۰۰۰۰","areas":{},"ostan":"استان-آذربایجان-شرقی"},"کوزه-کنان":{"id":671,"slug":"کوزه-کنان","parent_id":209,"name":"کوزه کنان","lat":"۳۸.۱۸۹۵۰۰۰۰","long":"۴۵.۵۷۸۸۰۰۰۰","areas":{},"ostan":"استان-آذربایجان-شرقی"},"گوگان":{"id":672,"slug":"گوگان","parent_id":209,"name":"گوگان","lat":"۳۷.۷۸۱۰۰۰۰۰","long":"۴۵.۹۰۹۰۰۰۰۰","areas":{},"ostan":"استان-آذربایجان-شرقی"},"لیلان":{"id":673,"slug":"لیلان","parent_id":209,"name":"لیلان","lat":"۳۷.۰۱۱۸۰۰۰۰","long":"۴۶.۲۰۳۸۰۰۰۰","areas":{},"ostan":"استان-آذربایجان-شرقی"},"ملک-کیان":{"id":674,"slug":"ملک-کیان","parent_id":209,"name":"ملک کیان","lat":"۳۸.۰۵۷۲۰۰۰۰","long":"۴۶.۵۴۱۰۰۰۰۰","areas":{},"ostan":"استان-آذربایجان-شرقی"},"ملکان":{"id":675,"slug":"ملکان","parent_id":209,"name":"ملکان","lat":"۳۷.۱۴۲۹۰۰۰۰","long":"۴۶.۱۰۴۳۰۰۰۰","areas":{},"ostan":"استان-آذربایجان-شرقی"},"ممقان":{"id":676,"slug":"ممقان","parent_id":209,"name":"ممقان","lat":"۳۷.۸۳۰۴۰۰۰۰","long":"۴۵.۹۸۹۲۰۰۰۰","areas":{},"ostan":"استان-آذربایجان-شرقی"},"مهربان":{"id":677,"slug":"مهربان","parent_id":209,"name":"مهربان","lat":"۳۸.۰۸۴۱۰۰۰۰","long":"۴۷.۱۳۳۹۰۰۰۰","areas":{},"ostan":"استان-آذربایجان-شرقی"},"نظرکهریزی":{"id":678,"slug":"نظرکهریزی","parent_id":209,"name":"نظرکهریزی","lat":"۳۷.۳۴۷۳۰۰۰۰","long":"۴۶.۷۶۳۳۰۰۰۰","areas":{},"ostan":"استان-آذربایجان-شرقی"},"هادی-شهر":{"id":679,"slug":"هادی-شهر","parent_id":209,"name":"هادی شهر","lat":"۳۸.۸۲۶۵۰۰۰۰","long":"۴۵.۶۶۷۹۰۰۰۰","areas":{},"ostan":"استان-آذربایجان-شرقی"},"هرگلان":{"id":680,"slug":"هرگلان","parent_id":209,"name":"هرگلان","lat":"۳۷.۶۳۹۹۰۰۰۰","long":"۴۶.۲۲۱۲۰۰۰۰","areas":{},"ostan":"استان-آذربایجان-شرقی"},"هریس":{"id":681,"slug":"هریس","parent_id":209,"name":"هریس","lat":"۳۸.۲۴۸۴۰۰۰۰","long":"۴۷.۱۱۸۰۰۰۰۰","areas":{},"ostan":"استان-آذربایجان-شرقی"},"هشترود":{"id":682,"slug":"هشترود","parent_id":209,"name":"هشترود","lat":"۳۷.۴۷۵۸۰۰۰۰","long":"۴۷.۰۵۰۵۰۰۰۰","areas":{},"ostan":"استان-آذربایجان-شرقی"},"هوراند":{"id":683,"slug":"هوراند","parent_id":209,"name":"هوراند","lat":"۳۸.۸۵۶۶۰۰۰۰","long":"۴۷.۳۶۴۹۰۰۰۰","areas":{},"ostan":"استان-آذربایجان-شرقی"},"وایقان":{"id":684,"slug":"وایقان","parent_id":209,"name":"وایقان","lat":"۳۸.۱۲۶۹۰۰۰۰","long":"۴۵.۷۱۲۱۰۰۰۰","areas":{},"ostan":"استان-آذربایجان-شرقی"},"ورزقان":{"id":685,"slug":"ورزقان","parent_id":209,"name":"ورزقان","lat":"۳۸.۵۰۸۱۰۰۰۰","long":"۴۶.۶۵۷۵۰۰۰۰","areas":{},"ostan":"استان-آذربایجان-شرقی"},"یامچی":{"id":686,"slug":"یامچی","parent_id":209,"name":"یامچی","lat":"۳۸.۵۲۲۷۰۰۰۰","long":"۴۵.۶۳۹۳۰۰۰۰","areas":{},"ostan":"استان-آذربایجان-شرقی"}}},"استان-آذربایجان-غربی":{"id":210,"slug":"استان-آذربایجان-غربی","parent_id":0,"name":"آذربایجان غربی","lat":"۳۷.۴۵۵۰۰۰۰۰","long":"۴۵.۰۰۰۰۰۰۰۰","areas":[],"ostan":"","cities":{"اشنویه":{"id":32,"slug":"اشنویه","parent_id":210,"name":"اشنویه","lat":"۳۷.۰۳۶۴۰۰۰۰","long":"۴۵.۰۹۷۱۰۰۰۰","areas":{"تاجالدینآباد":{"name":"تاج الدین آباد","id":1,"lat":0,"long":0},"بلواراستادهژار":{"name":"بلوار استاد هژار","id":2,"lat":0,"long":0},"خیابانکشاورز":{"name":"خیابان کشاورز","id":3,"lat":0,"long":0},"بلوارشهدا":{"name":"بلوار شهدا","id":4,"lat":0,"long":0},"بلوارعلامهقاضی":{"name":"بلوار علامه قاضی","id":5,"lat":0,"long":0},"بلوارانقلاب":{"name":"بلوار انقلاب","id":6,"lat":0,"long":0},"بلوارمعلم":{"name":"بلوار معلم","id":7,"lat":0,"long":0},"بلواربسیج":{"name":"بلوار بسیج","id":8,"lat":0,"long":0},"شهیدبهشتی":{"name":"شهید بهشتی","id":9,"lat":0,"long":0},"خیابانکوچهباغ":{"name":"خیابان کوچه باغ","id":10,"lat":0,"long":0},"کردستان":{"name":"کردستان","id":11,"lat":0,"long":0},"امامخمینی":{"name":"امام خمینی","id":12,"lat":0,"long":0},"پارکشیخعبدالعزیز":{"name":"پارک شیخ عبدالعزیز","id":13,"lat":0,"long":0},"بیمضرته":{"name":"بیمضرته","id":14,"lat":0,"long":0},"مسجدحنفیان":{"name":"مسجد حنفیان","id":15,"lat":0,"long":0}},"ostan":"استان-آذربایجان-غربی"},"بوکان":{"id":59,"slug":"بوکان","parent_id":210,"name":"بوکان","lat":"۳۶.۵۱۸۷۰۰۰۰","long":"۴۶.۲۰۹۴۰۰۰۰","areas":{},"ostan":"استان-آذربایجان-غربی"},"پیرانشهر":{"id":65,"slug":"پیرانشهر","parent_id":210,"name":"پیرانشهر","lat":"۳۶.۶۹۵۰۰۰۰۰","long":"۴۵.۱۴۴۶۰۰۰۰","areas":{},"ostan":"استان-آذربایجان-غربی"},"خوی":{"id":86,"slug":"خوی","parent_id":210,"name":"خوی","lat":"۳۸.۵۵۳۴۰۰۰۰","long":"۴۴.۹۳۹۷۰۰۰۰","areas":{},"ostan":"استان-آذربایجان-غربی"},"سردشت":{"id":110,"slug":"سردشت","parent_id":210,"name":"سردشت","lat":"۳۶.۱۵۸۴۰۰۰۰","long":"۴۵.۴۷۶۰۰۰۰۰","areas":{},"ostan":"استان-آذربایجان-غربی"},"سلماس":{"id":112,"slug":"سلماس","parent_id":210,"name":"سلماس","lat":"۳۸.۲۰۲۱۰۰۰۰","long":"۴۴.۷۷۰۶۰۰۰۰","areas":{},"ostan":"استان-آذربایجان-غربی"},"شاهین-دژ":{"id":121,"slug":"شاهین-دژ","parent_id":210,"name":"شاهین دژ","lat":"۳۶.۶۷۴۱۰۰۰۰","long":"۴۶.۵۷۰۱۰۰۰۰","areas":{},"ostan":"استان-آذربایجان-غربی"},"ماکو":{"id":162,"slug":"ماکو","parent_id":210,"name":"ماکو","lat":"۳۹.۲۹۵۶۰۰۰۰","long":"۴۴.۵۱۴۲۰۰۰۰","areas":{},"ostan":"استان-آذربایجان-غربی"},"مهاباد":{"id":172,"slug":"مهاباد","parent_id":210,"name":"مهاباد","lat":"۳۶.۷۶۸۴۰۰۰۰","long":"۴۵.۷۳۳۷۰۰۰۰","areas":{},"ostan":"استان-آذربایجان-غربی"},"میاندوآب":{"id":173,"slug":"میاندوآب","parent_id":210,"name":"میاندوآب","lat":"۳۶.۹۵۹۵۰۰۰۰","long":"۴۶.۱۰۵۴۰۰۰۰","areas":{},"ostan":"استان-آذربایجان-غربی"},"نقده":{"id":180,"slug":"نقده","parent_id":210,"name":"نقده","lat":"۳۶.۹۵۶۳۰۰۰۰","long":"۴۵.۳۸۷۸۰۰۰۰","areas":{},"ostan":"استان-آذربایجان-غربی"},"ارومیه":{"id":201,"slug":"ارومیه","parent_id":210,"name":"ارومیه","lat":"۳۷.۵۴۹۸۰۰۰۰","long":"۴۵.۰۷۸۶۰۰۰۰","areas":{"آبشناسان":{"name":"آبشناسان","id":1,"lat":0,"long":0},"سرو":{"name":"سرو","id":2,"lat":0,"long":0},"بلواررودکی":{"name":"بلوار رودکی","id":3,"lat":0,"long":0},"زعفرانیه":{"name":"زعفرانیه","id":4,"lat":0,"long":0},"کویهدایت":{"name":"کوی هدایت","id":5,"lat":0,"long":0},"طریقت":{"name":"طریقت","id":6,"lat":0,"long":0},"خدادوست":{"name":"خدادوست","id":7,"lat":0,"long":0},"تیموری":{"name":"تیموری","id":8,"lat":0,"long":0},"جامی":{"name":"جامی","id":9,"lat":0,"long":0},"فاضل":{"name":"فاضل","id":10,"lat":0,"long":0},"بلواربهدادی":{"name":"بلوار بهدادی","id":11,"lat":0,"long":0},"فردوسی":{"name":"فردوسی","id":12,"lat":0,"long":0},"سعدی":{"name":"سعدی","id":13,"lat":0,"long":0},"دکترباهنر":{"name":"دکتر باهنر","id":14,"lat":0,"long":0},"بلوارامامعلی":{"name":"بلوار امام علی","id":15,"lat":0,"long":0},"جامجم":{"name":"جام جم","id":16,"lat":0,"long":0},"بوستانفدک":{"name":"بوستان فدک","id":17,"lat":0,"long":0},"گلشهر":{"name":"گلشهر","id":18,"lat":0,"long":0},"باقرخوان":{"name":"باقرخوان","id":19,"lat":0,"long":0},"فرهنگیان":{"name":"فرهنگیان","id":20,"lat":0,"long":0},"استادشهریار":{"name":"استاد شهریار","id":21,"lat":0,"long":0},"شهیدکلاهدوز":{"name":"شهید کلاهدوز","id":22,"lat":0,"long":0},"یوسفی":{"name":"یوسفی","id":23,"lat":0,"long":0},"میرزایشیرازی":{"name":"میرزای شیرازی","id":24,"lat":0,"long":0},"مدنی":{"name":"مدنی","id":25,"lat":0,"long":0},"باقرالعلوم":{"name":"باقرالعلوم","id":26,"lat":0,"long":0},"شهرکپردیس":{"name":"شهرک پردیس","id":27,"lat":0,"long":0},"بلوارهفتتیر":{"name":"بلوار هفت تیر","id":28,"lat":0,"long":0},"مخابرات":{"name":"مخابرات","id":29,"lat":0,"long":0},"شهرکامیریه":{"name":"شهرک امیریه","id":30,"lat":0,"long":0},"بلوارابوذر":{"name":"بلوار ابوذر","id":31,"lat":0,"long":0},"شهرکزیباشهر":{"name":"شهرک زیباشهر","id":32,"lat":0,"long":0},"شهرکاندیشه":{"name":"شهرک اندیشه","id":33,"lat":0,"long":0},"خیابانالبرز":{"name":"خیابان البرز","id":34,"lat":0,"long":0},"بلوارسعادت":{"name":"بلوار سعادت","id":35,"lat":0,"long":0},"پرواز":{"name":"پرواز","id":36,"lat":0,"long":0},"گلدیس":{"name":"گلدیس","id":37,"lat":0,"long":0},"لشگر":{"name":"لشگر","id":38,"lat":0,"long":0},"بهاران":{"name":"بهاران","id":39,"lat":0,"long":0},"عارف":{"name":"عارف","id":40,"lat":0,"long":0},"صدمتریکمالفلسفی":{"name":"صد متری کمال فلسفی","id":41,"lat":0,"long":0},"کوهنورد":{"name":"کوهنورد","id":42,"lat":0,"long":0},"سمیه":{"name":"سمیه","id":43,"lat":0,"long":0},"پیشوا":{"name":"پیشوا","id":44,"lat":0,"long":0},"ریحانآباد":{"name":"ریحان آباد","id":45,"lat":0,"long":0},"شهیدبیابانی":{"name":"شهید بیابانی","id":46,"lat":0,"long":0},"میرداماد":{"name":"میرداماد","id":47,"lat":0,"long":0},"فارابی":{"name":"فارابی","id":48,"lat":0,"long":0},"شیخلو":{"name":"شیخلو","id":49,"lat":0,"long":0},"شهیدمنتظری":{"name":"شهید منتظری","id":50,"lat":0,"long":0}},"ostan":"استان-آذربایجان-غربی"},"آواجیق":{"id":687,"slug":"آواجیق","parent_id":210,"name":"آواجیق","lat":"۳۹.۳۱۴۲۰۰۰۰","long":"۴۴.۱۶۴۸۰۰۰۰","areas":{},"ostan":"استان-آذربایجان-غربی"},"ایواوغلی":{"id":688,"slug":"ایواوغلی","parent_id":210,"name":"ایواوغلی","lat":"۳۸.۷۱۱۶۰۰۰۰","long":"۴۵.۲۰۶۹۰۰۰۰","areas":{},"ostan":"استان-آذربایجان-غربی"},"باروق":{"id":689,"slug":"باروق","parent_id":210,"name":"باروق","lat":"۳۶.۹۵۴۲۰۰۰۰","long":"۴۶.۳۱۸۵۰۰۰۰","areas":{},"ostan":"استان-آذربایجان-غربی"},"بازرگان":{"id":690,"slug":"بازرگان","parent_id":210,"name":"بازرگان","lat":"۳۹.۳۹۰۲۰۰۰۰","long":"۴۴.۳۹۰۱۰۰۰۰","areas":{},"ostan":"استان-آذربایجان-غربی"},"پلدشت":{"id":691,"slug":"پلدشت","parent_id":210,"name":"پلدشت","lat":"۳۹.۳۴۷۱۰۰۰۰","long":"۴۵.۰۶۶۶۰۰۰۰","areas":{},"ostan":"استان-آذربایجان-غربی"},"تازه-شهر":{"id":692,"slug":"تازه-شهر","parent_id":210,"name":"تازه شهر","lat":"۳۸.۱۷۵۲۰۰۰۰","long":"۴۴.۶۹۰۹۰۰۰۰","areas":{},"ostan":"استان-آذربایجان-غربی"},"تکاب":{"id":693,"slug":"تکاب","parent_id":210,"name":"تکاب","lat":"۳۶.۴۰۵۲۰۰۰۰","long":"۴۷.۱۱۵۶۰۰۰۰","areas":{},"ostan":"استان-آذربایجان-غربی"},"چهاربرج":{"id":694,"slug":"چهاربرج","parent_id":210,"name":"چهاربرج","lat":"۳۷.۱۲۲۳۰۰۰۰","long":"۴۵.۹۷۳۳۰۰۰۰","areas":{},"ostan":"استان-آذربایجان-غربی"},"دیزج-دیز":{"id":695,"slug":"دیزج-دیز","parent_id":210,"name":"دیزج دیز","lat":"۳۸.۴۶۰۴۰۰۰۰","long":"۴۵.۰۲۰۱۰۰۰۰","areas":{},"ostan":"استان-آذربایجان-غربی"},"ربط":{"id":696,"slug":"ربط","parent_id":210,"name":"ربط","lat":"۳۶.۲۱۰۲۰۰۰۰","long":"۴۵.۵۴۸۰۰۰۰۰","areas":{},"ostan":"استان-آذربایجان-غربی"},"سرو":{"id":697,"slug":"سرو","parent_id":210,"name":"سرو","lat":"۳۷.۷۲۲۷۰۰۰۰","long":"۴۴.۶۵۰۴۰۰۰۰","areas":{},"ostan":"استان-آذربایجان-غربی"},"سیلوانه":{"id":698,"slug":"سیلوانه","parent_id":210,"name":"سیلوانه","lat":"۳۷.۴۲۲۴۰۰۰۰","long":"۴۴.۸۵۱۳۰۰۰۰","areas":{},"ostan":"استان-آذربایجان-غربی"},"سیمینه":{"id":699,"slug":"سیمینه","parent_id":210,"name":"سیمینه","lat":"۳۶.۷۲۹۸۰۰۰۰","long":"۴۶.۱۵۲۹۰۰۰۰","areas":{},"ostan":"استان-آذربایجان-غربی"},"سیه-چشمه":{"id":700,"slug":"سیه-چشمه","parent_id":210,"name":"سیه چشمه","lat":"۳۹.۰۶۵۰۰۰۰۰","long":"۴۴.۳۸۴۵۰۰۰۰","areas":{},"ostan":"استان-آذربایجان-غربی"},"شوط":{"id":701,"slug":"شوط","parent_id":210,"name":"شوط","lat":"۳۹.۲۱۶۶۰۰۰۰","long":"۴۴.۷۶۵۲۰۰۰۰","areas":{},"ostan":"استان-آذربایجان-غربی"},"فیرورق":{"id":702,"slug":"فیرورق","parent_id":210,"name":"فیرورق","lat":"۳۸.۵۷۲۹۰۰۰۰","long":"۴۴.۸۵۹۱۰۰۰۰","areas":{},"ostan":"استان-آذربایجان-غربی"},"قره-ضیاءالدین":{"id":703,"slug":"قره-ضیاءالدین","parent_id":210,"name":"قره ضیاءالدین","lat":"۳۸.۸۸۸۴۰۰۰۰","long":"۴۵.۰۳۰۴۰۰۰۰","areas":{},"ostan":"استان-آذربایجان-غربی"},"قطور":{"id":704,"slug":"قطور","parent_id":210,"name":"قطور","lat":"۳۸.۴۷۳۱۰۰۰۰","long":"۴۴.۴۰۷۸۰۰۰۰","areas":{},"ostan":"استان-آذربایجان-غربی"},"قوشچی":{"id":705,"slug":"قوشچی","parent_id":210,"name":"قوشچی","lat":"۳۷.۹۹۳۷۰۰۰۰","long":"۴۵.۰۳۰۶۰۰۰۰","areas":{},"ostan":"استان-آذربایجان-غربی"},"کشاورز":{"id":706,"slug":"کشاورز","parent_id":210,"name":"کشاورز","lat":"۳۶.۸۳۵۰۰۰۰۰","long":"۴۶.۳۵۹۴۰۰۰۰","areas":{},"ostan":"استان-آذربایجان-غربی"},"لاجان":{"id":707,"slug":"لاجان","parent_id":210,"name":"لاجان","lat":"۳۶.۸۰۸۶۰۰۰۰","long":"۴۵.۲۶۴۹۰۰۰۰","areas":{},"ostan":"استان-آذربایجان-غربی"},"محمدیار":{"id":708,"slug":"محمدیار","parent_id":210,"name":"محمدیار","lat":"۳۶.۹۸۱۳۰۰۰۰","long":"۴۵.۵۲۲۱۰۰۰۰","areas":{},"ostan":"استان-آذربایجان-غربی"},"محمودآباد":{"id":709,"slug":"محمودآباد","parent_id":210,"name":"محمودآباد","lat":"۳۶.۶۳۲۹۰۰۰۰","long":"۵۲.۲۶۶۷۰۰۰۰","areas":{},"ostan":"استان-آذربایجان-غربی"},"میرآباد":{"id":710,"slug":"میرآباد","parent_id":210,"name":"میرآباد","lat":"۳۶.۴۰۷۱۰۰۰۰","long":"۴۵.۳۷۱۰۰۰۰۰","areas":{},"ostan":"استان-آذربایجان-غربی"},"نالوس":{"id":711,"slug":"نالوس","parent_id":210,"name":"نالوس","lat":"۳۶.۹۸۳۰۰۰۰۰","long":"۴۵.۱۴۲۹۰۰۰۰","areas":{},"ostan":"استان-آذربایجان-غربی"},"نوشین-شهر":{"id":712,"slug":"نوشین-شهر","parent_id":210,"name":"نوشین شهر","lat":"۳۷.۷۳۰۸۰۰۰۰","long":"۴۵.۰۵۴۳۰۰۰۰","areas":{},"ostan":"استان-آذربایجان-غربی"}}},"استان-گیلان":{"id":211,"slug":"استان-گیلان","parent_id":0,"name":"گیلان","lat":"۳۷.۲۸۰۹۰۰۰۰","long":"۴۹.۵۹۲۴۰۰۰۰","areas":[],"ostan":"","cities":{"آستارا":{"id":17,"slug":"آستارا","parent_id":211,"name":"آستارا","lat":"۳۸.۴۲۲۵۰۰۰۰","long":"۴۸.۸۶۸۷۰۰۰۰","areas":{"بلوارخرمشهر":{"name":"بلوار خرمشهر","id":1,"lat":0,"long":0},"بلواراسکله":{"name":"بلوار اسکله","id":2,"lat":0,"long":0},"خیاباندانش":{"name":"خیابان دانش","id":3,"lat":0,"long":0},"شهرکفرهنگیان":{"name":"شهرک فرهنگیان","id":4,"lat":0,"long":0},"بلواربسیج":{"name":"بلوار بسیج","id":5,"lat":0,"long":0},"قاضیپور":{"name":"قاضی پور","id":6,"lat":0,"long":0},"بازارمرزی":{"name":"بازار مرزی","id":7,"lat":0,"long":0},"اسکله":{"name":"اسکله","id":8,"lat":0,"long":0},"ستارخان":{"name":"ستارخان","id":9,"lat":0,"long":0},"عباسیه":{"name":"عباسیه","id":10,"lat":0,"long":0},"کشاورز":{"name":"کشاورز","id":11,"lat":0,"long":0},"حکیمنظامی":{"name":"حکیم نظامی","id":12,"lat":0,"long":0},"مرزداران":{"name":"مرزداران","id":13,"lat":0,"long":0},"جلالآباد":{"name":"جلال آباد","id":14,"lat":0,"long":0},"خیابانفارابی":{"name":"خیابان فارابی","id":15,"lat":0,"long":0}},"ostan":"استان-گیلان"},"آستانه-اشرفیه":{"id":18,"slug":"آستانه-اشرفیه","parent_id":211,"name":"آستانه اشرفیه","lat":"۳۷.۲۵۹۸۰۰۰۰","long":"۴۹.۹۴۳۷۰۰۰۰","areas":{"خیابانابوذر":{"name":"خیابان ابوذر","id":1,"lat":0,"long":0},"بلوارامامحسین":{"name":"بلوار امام حسین","id":2,"lat":0,"long":0},"خیابانفردوسی":{"name":"خیابان فردوسی","id":3,"lat":0,"long":0},"بلوارامامرضا":{"name":"بلوار امام رضا","id":4,"lat":0,"long":0},"آیتالهمدرس":{"name":"آیت اله مدرس","id":5,"lat":0,"long":0},"استقلال":{"name":"استقلال","id":6,"lat":0,"long":0},"پاسداران":{"name":"پاسداران","id":7,"lat":0,"long":0},"کارگر":{"name":"کارگر","id":8,"lat":0,"long":0},"خوشسیرت":{"name":"خوش سیرت","id":9,"lat":0,"long":0},"سردارجنگل":{"name":"سردار جنگل","id":10,"lat":0,"long":0},"بلواردکترمعین":{"name":"بلوار دکتر معین","id":11,"lat":0,"long":0},"خیاباناهلبیت":{"name":"خیابان اهل بیت","id":12,"lat":0,"long":0},"عبدلآباد":{"name":"عبدل آباد","id":13,"lat":0,"long":0},"دکتردشتستانی":{"name":"دکتر دشتستانی","id":14,"lat":0,"long":0},"خیابانجهاد":{"name":"خیابان جهاد","id":15,"lat":0,"long":0}},"ostan":"استان-گیلان"},"بندر-انزلی":{"id":52,"slug":"بندر-انزلی","parent_id":211,"name":"بندر انزلی","lat":"۳۷.۴۶۳۹۰۰۰۰","long":"۴۹.۴۷۹۹۰۰۰۰","areas":{},"ostan":"استان-گیلان"},"تالش":{"id":68,"slug":"تالش","parent_id":211,"name":"تالش","lat":"۳۷.۸۰۱۶۰۰۰۰","long":"۴۸.۹۰۷۳۰۰۰۰","areas":{},"ostan":"استان-گیلان"},"چابکسر":{"id":76,"slug":"چابکسر","parent_id":211,"name":"چابکسر","lat":"۳۶.۹۷۶۱۰۰۰۰","long":"۵۰.۵۶۰۲۰۰۰۰","areas":{},"ostan":"استان-گیلان"},"رشت":{"id":97,"slug":"رشت","parent_id":211,"name":"رشت","lat":"۳۷.۲۶۸۲۰۰۰۰","long":"۴۹.۵۸۹۱۰۰۰۰","areas":{"آبآسیاب":{"name":"آب آسیاب","id":1368,"lat":37.26406498,"long":49.59898842},"آزادگان":{"name":"آزادگان","id":1370,"lat":37.26967515,"long":49.59895802},"الکتریک":{"name":"الکتریک","id":1372,"lat":0,"long":0},"بلوارگیلان":{"name":"بلوار گیلان","id":1375,"lat":37.30772798,"long":49.57879188},"پارکشهر":{"name":"پارک شهر","id":1377,"lat":37.26812965,"long":49.58474016},"پاسکیاب":{"name":"پاسکیاب","id":1378,"lat":37.27731534,"long":49.55495718},"پستک":{"name":"پستک","id":1380,"lat":37.31497363,"long":49.58422905},"پیرسرا":{"name":"پیرسرا","id":1381,"lat":37.27581895,"long":49.57555624},"حمیدیان":{"name":"حمیدیان","id":1383,"lat":37.26771113,"long":49.5522108},"خرسندی":{"name":"خرسندی","id":1385,"lat":37.28828128,"long":49.56910011},"دانشگاهگیلان":{"name":"دانشگاه گیلان","id":1387,"lat":37.19371924,"long":49.64081909},"دهکدهگیل":{"name":"دهکده گیل","id":1388,"lat":0,"long":0},"دیانتی":{"name":"دیانتی","id":1390,"lat":37.29046852,"long":49.60566267},"سیاهاسطلخ":{"name":"سیاه اسطلخ","id":1392,"lat":37.29118466,"long":49.55621071},"سیمکو":{"name":"سیمکو","id":1393,"lat":0,"long":0},"شهرکبرق":{"name":"شهرک برق","id":1394,"lat":37.23633387,"long":49.58365095},"شهرکشهیدمفتح":{"name":"شهرک شهید مفتح","id":1397,"lat":37.26382295,"long":49.5639546},"شهرکصبا":{"name":"شهرک صبا","id":1398,"lat":37.27532885,"long":49.62220087},"شهرکفجرآزادگان":{"name":"شهرک فجر آزادگان","id":1399,"lat":37.26487407,"long":49.62411597},"شهرکقدس":{"name":"شهرک قدس","id":1400,"lat":37.25425861,"long":49.58498419},"شهرکمروارید":{"name":"شهرک مروارید","id":1402,"lat":37.30152509,"long":49.61439804},"صفسر":{"name":"صف سر","id":1403,"lat":37.26911179,"long":49.55512399},"ضیابری":{"name":"ضیابری","id":1405,"lat":37.27057954,"long":49.57529536},"فرهنگ":{"name":"فرهنگ","id":1407,"lat":37.29062372,"long":49.59347025},"فلسطین":{"name":"فلسطین","id":1408,"lat":37.27998924,"long":49.61256935},"قاسمیه":{"name":"قاسمیه","id":1409,"lat":37.26133537,"long":49.57527355},"کاکتوس":{"name":"کاکتوس","id":1411,"lat":37.30885695,"long":49.59124879},"کسبخ":{"name":"کسبخ","id":1412,"lat":37.26372823,"long":49.6196815},"کویبهشتی":{"name":"کوی بهشتی","id":1414,"lat":0,"long":0},"کویعرفان":{"name":"کوی عرفان","id":1416,"lat":37.26153584,"long":49.58822427},"کویقدس":{"name":"کوی قدس","id":1417,"lat":0,"long":0},"گلسار":{"name":"گلسار","id":1419,"lat":37.29548996,"long":49.58994303},"لاکانشهر":{"name":"لاکانشهر","id":1420,"lat":37.26751275,"long":49.590199},"معلم":{"name":"معلم","id":1422,"lat":37.29008664,"long":49.59263965},"منظریه":{"name":"منظریه","id":1423,"lat":37.26160104,"long":49.59317754},"نخودچر":{"name":"نخودچر","id":1424,"lat":37.27540611,"long":49.53736808},"نیکمرام":{"name":"نیکمرام","id":1426,"lat":37.28143868,"long":49.57096596},"ولکس":{"name":"ولکس","id":1427,"lat":37.27906556,"long":49.53573656},"آجبیشه":{"name":"آج بیشه","id":1369,"lat":37.26845711,"long":49.58929767},"استقامت":{"name":"استقامت","id":1371,"lat":37.26848391,"long":49.56468289},"بازار":{"name":"بازار","id":1373,"lat":37.27744645,"long":49.58602757},"باقرآباد":{"name":"باقرآباد","id":1374,"lat":37.28687948,"long":49.58786165},"بیانی":{"name":"بیانی","id":1376,"lat":37.25507984,"long":49.60291852},"پردیسان":{"name":"پردیسان","id":1379,"lat":37.28471829,"long":49.5904825},"چلهخانه":{"name":"چله خانه","id":1382,"lat":37.27294361,"long":49.58854939},"خبرنگار":{"name":"خبرنگار","id":1384,"lat":37.26552471,"long":49.60612353},"خواهرامام":{"name":"خواهر امام","id":1386,"lat":37.27889102,"long":49.59559247},"دولتآباد":{"name":"دولت آباد","id":1389,"lat":37.22127746,"long":49.6352645},"سلیمانداراب":{"name":"سلیمانداراب","id":1391,"lat":37.25747101,"long":49.57014513},"شهرکسیداحمدخمینی":{"name":"شهرک سید احمد خمینی","id":1395,"lat":0,"long":0},"شهرکشهیدمصطفیخمینی":{"name":"شهرک شهید مصطفی خمینی","id":1396,"lat":37.26735786,"long":49.5739469},"شهرککمپوست":{"name":"شهرک کمپوست","id":1401,"lat":0,"long":0},"صومعهبیجار":{"name":"صومعه بیجار","id":1404,"lat":0,"long":0},"علیآباد":{"name":"علی آباد","id":1406,"lat":37.28631227,"long":49.56947987},"قلعهسرا":{"name":"قلعه سرا","id":1410,"lat":0,"long":0},"کویامامرضا(ع)":{"name":"کوی امام رضا (ع)","id":1413,"lat":37.29379129,"long":49.62357963},"کویحسینی":{"name":"کوی حسینی","id":1415,"lat":37.303994,"long":49.57134024},"کویهلالاحمر":{"name":"کوی هلال احمر","id":1418,"lat":0,"long":0},"مسکنمهر":{"name":"مسکن مهر","id":1421,"lat":37.24701691,"long":49.59296112},"نیرویدریایی":{"name":"نیروی دریایی","id":1425,"lat":37.26825453,"long":49.61270238}},"ostan":"استان-گیلان"},"رودسر":{"id":99,"slug":"رودسر","parent_id":211,"name":"رودسر","lat":"۳۷.۱۳۷۸۰۰۰۰","long":"۵۰.۲۸۳۶۰۰۰۰","areas":{},"ostan":"استان-گیلان"},"سیاهکل":{"id":118,"slug":"سیاهکل","parent_id":211,"name":"سیاهکل","lat":"۳۷.۱۴۸۲۰۰۰۰","long":"۴۹.۸۸۰۳۰۰۰۰","areas":{},"ostan":"استان-گیلان"},"صومعه‌سرا":{"id":127,"slug":"صومعه‌سرا","parent_id":211,"name":"صومعه‌سرا","lat":"۳۷.۳۰۴۹۰۰۰۰","long":"۴۹.۳۱۷۸۰۰۰۰","areas":{},"ostan":"استان-گیلان"},"فومن":{"id":135,"slug":"فومن","parent_id":211,"name":"فومن","lat":"۳۷.۲۲۰۴۰۰۰۰","long":"۴۹.۳۰۹۵۰۰۰۰","areas":{},"ostan":"استان-گیلان"},"کلاچای":{"id":148,"slug":"کلاچای","parent_id":211,"name":"کلاچای","lat":"۳۷.۰۷۷۵۰۰۰۰","long":"۵۰.۳۹۷۲۰۰۰۰","areas":{},"ostan":"استان-گیلان"},"لاهیجان":{"id":158,"slug":"لاهیجان","parent_id":211,"name":"لاهیجان","lat":"۳۷.۲۰۷۱۰۰۰۰","long":"۵۰.۰۰۳۴۰۰۰۰","areas":{},"ostan":"استان-گیلان"},"لنگرود":{"id":160,"slug":"لنگرود","parent_id":211,"name":"لنگرود","lat":"۳۷.۱۸۷۸۰۰۰۰","long":"۵۰.۱۵۷۵۰۰۰۰","areas":{},"ostan":"استان-گیلان"},"ماسال":{"id":161,"slug":"ماسال","parent_id":211,"name":"ماسال","lat":"۳۷.۳۶۲۱۰۰۰۰","long":"۴۹.۱۳۱۵۰۰۰۰","areas":{},"ostan":"استان-گیلان"},"احمدسرگوراب":{"id":371,"slug":"احمدسرگوراب","parent_id":211,"name":"احمدسرگوراب","lat":"۳۷.۱۳۳۵۰۰۰۰","long":"۴۹.۳۶۷۹۰۰۰۰","areas":{},"ostan":"استان-گیلان"},"اسالم":{"id":372,"slug":"اسالم","parent_id":211,"name":"اسالم","lat":"۳۷.۷۳۵۷۰۰۰۰","long":"۴۸.۹۴۵۸۰۰۰۰","areas":{},"ostan":"استان-گیلان"},"اطاقور":{"id":373,"slug":"اطاقور","parent_id":211,"name":"اطاقور","lat":"۳۷.۱۱۰۱۰۰۰۰","long":"۵۰.۱۱۳۸۰۰۰۰","areas":{},"ostan":"استان-گیلان"},"املش":{"id":374,"slug":"املش","parent_id":211,"name":"املش","lat":"۳۷.۰۸۷۲۰۰۰۰","long":"۵۰.۱۹۱۰۰۰۰۰","areas":{},"ostan":"استان-گیلان"},"بازار-جمعه":{"id":375,"slug":"بازار-جمعه","parent_id":211,"name":"بازار جمعه","lat":"۳۷.۴۰۶۸۰۰۰۰","long":"۴۹.۱۱۸۲۰۰۰۰","areas":{},"ostan":"استان-گیلان"},"بره-سر":{"id":376,"slug":"بره-سر","parent_id":211,"name":"بره سر","lat":"۳۶.۷۷۶۷۰۰۰۰","long":"۴۹.۷۵۲۴۰۰۰۰","areas":{},"ostan":"استان-گیلان"},"پره-سر":{"id":377,"slug":"پره-سر","parent_id":211,"name":"پره سر","lat":"۳۷.۶۰۳۴۰۰۰۰","long":"۴۹.۰۶۹۳۰۰۰۰","areas":{},"ostan":"استان-گیلان"},"پیربازار":{"id":378,"slug":"پیربازار","parent_id":211,"name":"پیربازار","lat":"۳۷.۳۴۲۸۰۰۰۰","long":"۴۹.۵۴۶۲۰۰۰۰","areas":{},"ostan":"استان-گیلان"},"توتکابن":{"id":379,"slug":"توتکابن","parent_id":211,"name":"توتکابن","lat":"۳۶.۸۹۳۹۰۰۰۰","long":"۴۹.۵۲۵۶۰۰۰۰","areas":{},"ostan":"استان-گیلان"},"جیرنده":{"id":380,"slug":"جیرنده","parent_id":211,"name":"جیرنده","lat":"۳۶.۷۰۱۳۰۰۰۰","long":"۴۹.۷۹۰۵۰۰۰۰","areas":{},"ostan":"استان-گیلان"},"چاف-و-چمخاله":{"id":381,"slug":"چاف-و-چمخاله","parent_id":211,"name":"چاف و چمخاله","lat":"۳۷.۲۱۶۴۰۰۰۰","long":"۵۰.۲۲۵۶۰۰۰۰","areas":{},"ostan":"استان-گیلان"},"چوبر":{"id":382,"slug":"چوبر","parent_id":211,"name":"چوبر","lat":"۳۷.۰۸۹۶۰۰۰۰","long":"۴۹.۴۲۱۸۰۰۰۰","areas":{},"ostan":"استان-گیلان"},"حویق":{"id":383,"slug":"حویق","parent_id":211,"name":"حویق","lat":"۳۸.۱۵۴۲۰۰۰۰","long":"۴۸.۸۹۰۳۰۰۰۰","areas":{},"ostan":"استان-گیلان"},"خشکبیجار":{"id":384,"slug":"خشکبیجار","parent_id":211,"name":"خشکبیجار","lat":"۳۷.۳۷۴۱۰۰۰۰","long":"۴۹.۷۵۸۶۰۰۰۰","areas":{},"ostan":"استان-گیلان"},"خمام":{"id":385,"slug":"خمام","parent_id":211,"name":"خمام","lat":"۳۷.۳۸۲۱۰۰۰۰","long":"۴۹.۶۵۱۸۰۰۰۰","areas":{},"ostan":"استان-گیلان"},"دیلمان":{"id":386,"slug":"دیلمان","parent_id":211,"name":"دیلمان","lat":"۳۶.۸۸۳۵۰۰۰۰","long":"۴۹.۹۰۷۱۰۰۰۰","areas":{},"ostan":"استان-گیلان"},"رانکوه":{"id":387,"slug":"رانکوه","parent_id":211,"name":"رانکوه","lat":"۳۷.۰۴۹۷۰۰۰۰","long":"۵۰.۲۳۶۴۰۰۰۰","areas":{},"ostan":"استان-گیلان"},"رحیم-آباد":{"id":388,"slug":"رحیم-آباد","parent_id":211,"name":"رحیم آباد","lat":"۳۷.۰۳۳۱۰۰۰۰","long":"۵۰.۳۳۷۰۰۰۰۰","areas":{},"ostan":"استان-گیلان"},"رستم-آباد":{"id":389,"slug":"رستم-آباد","parent_id":211,"name":"رستم آباد","lat":"۳۶.۸۸۴۰۰۰۰۰","long":"۴۹.۴۹۱۵۰۰۰۰","areas":{},"ostan":"استان-گیلان"},"رضوانشهر":{"id":390,"slug":"رضوانشهر","parent_id":211,"name":"رضوانشهر","lat":"۳۷.۵۵۰۵۰۰۰۰","long":"۴۹.۱۳۹۷۰۰۰۰","areas":{},"ostan":"استان-گیلان"},"رودبار":{"id":391,"slug":"رودبار","parent_id":211,"name":"رودبار","lat":"۳۶.۸۰۶۶۰۰۰۰","long":"۴۹.۴۱۸۹۰۰۰۰","areas":{},"ostan":"استان-گیلان"},"رودبنه":{"id":392,"slug":"رودبنه","parent_id":211,"name":"رودبنه","lat":"۳۷.۲۵۶۵۰۰۰۰","long":"۵۰.۰۰۸۲۰۰۰۰","areas":{},"ostan":"استان-گیلان"},"زیباکنار":{"id":393,"slug":"زیباکنار","parent_id":211,"name":"زیباکنار","lat":"۳۷.۴۳۴۹۰۰۰۰","long":"۴۹.۸۷۸۸۰۰۰۰","areas":{},"ostan":"استان-گیلان"},"سنگر":{"id":394,"slug":"سنگر","parent_id":211,"name":"سنگر","lat":"۳۷.۱۷۹۱۰۰۰۰","long":"۴۹.۶۹۷۷۰۰۰۰","areas":{},"ostan":"استان-گیلان"},"شفت":{"id":395,"slug":"شفت","parent_id":211,"name":"شفت","lat":"۳۷.۱۶۳۸۰۰۰۰","long":"۴۹.۴۰۳۰۰۰۰۰","areas":{},"ostan":"استان-گیلان"},"شلمان":{"id":396,"slug":"شلمان","parent_id":211,"name":"شلمان","lat":"۳۷.۱۵۹۹۰۰۰۰","long":"۵۰.۲۱۶۶۰۰۰۰","areas":{},"ostan":"استان-گیلان"},"کوچصفهان":{"id":397,"slug":"کوچصفهان","parent_id":211,"name":"کوچصفهان","lat":"۳۷.۲۷۷۱۰۰۰۰","long":"۴۹.۷۶۸۱۰۰۰۰","areas":{},"ostan":"استان-گیلان"},"کومله":{"id":398,"slug":"کومله","parent_id":211,"name":"کومله","lat":"۳۷.۱۵۰۶۰۰۰۰","long":"۵۰.۱۷۶۱۰۰۰۰","areas":{},"ostan":"استان-گیلان"},"کیاشهر":{"id":399,"slug":"کیاشهر","parent_id":211,"name":"کیاشهر","lat":"۳۷.۴۲۲۳۰۰۰۰","long":"۴۹.۹۳۰۵۰۰۰۰","areas":{},"ostan":"استان-گیلان"},"گوراب-زرمیخ":{"id":400,"slug":"گوراب-زرمیخ","parent_id":211,"name":"گوراب زرمیخ","lat":"۳۷.۳۰۰۱۰۰۰۰","long":"۴۹.۲۱۸۶۰۰۰۰","areas":{},"ostan":"استان-گیلان"},"لشت-نشا":{"id":401,"slug":"لشت-نشا","parent_id":211,"name":"لشت نشا","lat":"۳۷.۳۶۲۳۰۰۰۰","long":"۴۹.۸۶۱۸۰۰۰۰","areas":{},"ostan":"استان-گیلان"},"لوشان":{"id":402,"slug":"لوشان","parent_id":211,"name":"لوشان","lat":"۳۶.۶۳۱۲۰۰۰۰","long":"۴۹.۵۱۴۷۰۰۰۰","areas":{},"ostan":"استان-گیلان"},"لولمان":{"id":403,"slug":"لولمان","parent_id":211,"name":"لولمان","lat":"۳۷.۲۵۲۳۰۰۰۰","long":"۴۹.۸۲۵۰۰۰۰۰","areas":{},"ostan":"استان-گیلان"},"لوندویل":{"id":404,"slug":"لوندویل","parent_id":211,"name":"لوندویل","lat":"۳۸.۳۰۹۲۰۰۰۰","long":"۴۸.۸۶۳۴۰۰۰۰","areas":{},"ostan":"استان-گیلان"},"لیسار":{"id":405,"slug":"لیسار","parent_id":211,"name":"لیسار","lat":"۳۷.۹۳۷۴۰۰۰۰","long":"۴۸.۹۱۶۲۰۰۰۰","areas":{},"ostan":"استان-گیلان"},"ماسوله":{"id":406,"slug":"ماسوله","parent_id":211,"name":"ماسوله","lat":"۳۷.۱۵۶۰۰۰۰۰","long":"۴۸.۹۸۹۳۰۰۰۰","areas":{},"ostan":"استان-گیلان"},"مرجقل":{"id":407,"slug":"مرجقل","parent_id":211,"name":"مرجقل","lat":"۳۷.۲۸۳۵۰۰۰۰","long":"۴۹.۳۷۹۴۰۰۰۰","areas":{},"ostan":"استان-گیلان"},"منجیل":{"id":408,"slug":"منجیل","parent_id":211,"name":"منجیل","lat":"۳۶.۷۴۱۲۰۰۰۰","long":"۴۹.۴۱۸۵۰۰۰۰","areas":{},"ostan":"استان-گیلان"},"واجارگاه":{"id":409,"slug":"واجارگاه","parent_id":211,"name":"واجارگاه","lat":"۳۷.۰۴۱۷۰۰۰۰","long":"۵۰.۴۱۳۷۰۰۰۰","areas":{},"ostan":"استان-گیلان"}}},"استان-تهران":{"id":212,"slug":"استان-تهران","parent_id":0,"name":"تهران","lat":"۳۵.۶۸۹۲۰۰۰۰","long":"۵۱.۳۸۹۰۰۰۰۰","areas":[],"ostan":"","cities":{"تهران":{"id":7,"slug":"تهران","parent_id":212,"name":"تهران","lat":"۳۵.۶۸۹۲۰۰۰۰","long":"۵۱.۳۸۹۰۰۰۰۰","areas":{"15خرداد":{"name":"15 خرداد","id":1837,"lat":35.67717406,"long":51.42371261},"آبشار":{"name":"آبشار","id":990,"lat":35.67937386,"long":51.44225832},"آپادانا":{"name":"آپادانا","id":1949,"lat":35.70728275,"long":51.3280632},"آپاداناخرمشهر":{"name":"آپادانا - خرمشهر","id":991,"lat":35.735835,"long":51.4357037},"آجودانیه":{"name":"آجودانیه","id":992,"lat":35.80686996,"long":51.48586467},"آذربایجان":{"name":"آذربایجان","id":993,"lat":35.69272811,"long":51.39828877},"آذری":{"name":"آذری","id":994,"lat":35.66717663,"long":51.35166136},"آرارات":{"name":"آرارات","id":995,"lat":35.77501496,"long":51.39969735},"آرژانتین":{"name":"آرژانتین","id":996,"lat":35.70350468,"long":51.41415441},"آزادشهر":{"name":"آزاد شهر","id":997,"lat":35.73507765,"long":51.19027012},"آسمان":{"name":"آسمان","id":998,"lat":35.77467586,"long":51.34032359},"آشتیانی":{"name":"آشتیانی","id":999,"lat":35.71704808,"long":51.50475376},"آفریقا":{"name":"آفریقا","id":1870,"lat":35.76248569,"long":51.41852267},"آگاهی":{"name":"آگاهی","id":1000,"lat":35.74115674,"long":51.44980748},"آلستوم":{"name":"آلستوم","id":1901,"lat":35.75620352,"long":51.27687233},"آهنگ":{"name":"آهنگ","id":1001,"lat":35.66531529,"long":51.46378034},"ائمهاطهار":{"name":"ائمه اطهار","id":989,"lat":35.68043395,"long":51.48618434},"اباذر":{"name":"اباذر","id":948,"lat":35.73114967,"long":51.32984154},"ابراهیم‌آباد":{"name":"ابراهیم‌ آباد","id":949,"lat":35.36632307,"long":51.28375051},"ابنبابویه":{"name":"ابن بابویه","id":950,"lat":35.60315148,"long":51.44108898},"ابنسینا":{"name":"ابن سینا","id":1819,"lat":35.73185349,"long":51.41070954},"ابوذرمنطقه14":{"name":"ابوذر - منطقه 14","id":951,"lat":35.6532478,"long":51.48354641},"ابوسعید":{"name":"ابو سعید","id":1962,"lat":35.66197075,"long":51.25935637},"اتابک":{"name":"اتابک","id":953,"lat":35.64995172,"long":51.46133412},"اتحاد":{"name":"اتحاد","id":954,"lat":35.72599814,"long":51.41198672},"اجارهدار":{"name":"اجاره دار","id":955,"lat":35.71428074,"long":51.44811837},"احمدآبادمستوفی":{"name":"احمدآباد مستوفی","id":956,"lat":35.60954129,"long":51.24581877},"اختیاریه":{"name":"اختیاریه","id":957,"lat":35.78793182,"long":51.45970346},"اراج":{"name":"اراج","id":958,"lat":35.79288296,"long":51.48744977},"ارامنه":{"name":"ارامنه","id":959,"lat":35.61331968,"long":51.43297505},"اردیبهشت":{"name":"اردیبهشت","id":1943,"lat":35.74848276,"long":51.52397945},"ارم":{"name":"ارم","id":960,"lat":35.7255411,"long":51.29306643},"ازگل":{"name":"ازگل","id":961,"lat":35.7900886,"long":51.51225308},"استادمعین":{"name":"استاد معین","id":962,"lat":35.69322515,"long":51.34598195},"استخر":{"name":"استخر","id":964,"lat":35.75629895,"long":51.55990251},"اسفندیاری":{"name":"اسفندیاری","id":965,"lat":35.62836593,"long":51.38478386},"اسکندری":{"name":"اسکندری","id":966,"lat":35.68571843,"long":51.38133997},"اسکندریجنوبی":{"name":"اسکندری جنوبی","id":1942,"lat":35.68756584,"long":51.38181204},"اسکندریشمالی":{"name":"اسکندری شمالی","id":1941,"lat":35.69078998,"long":51.38159747},"اسلامشهر":{"name":"اسلامشهر","id":1787,"lat":35.54713437,"long":51.23400884},"افسریه":{"name":"افسریه","id":967,"lat":35.65559566,"long":51.49176116},"اقدسیه":{"name":"اقدسیه","id":968,"lat":35.7956369,"long":51.48764399},"اکباتان":{"name":"اکباتان","id":969,"lat":35.71115498,"long":51.30944255},"المهدی":{"name":"المهدی","id":970,"lat":35.77458025,"long":51.32773881},"الهیه":{"name":"الهیه","id":971,"lat":35.79076172,"long":51.42729602},"الوند":{"name":"الوند","id":1938,"lat":35.72371851,"long":51.42118209},"امامت":{"name":"امامت","id":974,"lat":35.73816849,"long":51.31513043},"امامحسین(ع)":{"name":"امام حسین(ع)","id":972,"lat":35.70200478,"long":51.44766307},"امامزادهحسن(ع)":{"name":"امامزاده حسن(ع)","id":975,"lat":35.66450775,"long":51.35970377},"امامزادهقاسم":{"name":"امامزاده قاسم","id":2007,"lat":35.81255633,"long":51.43981633},"امامسجاد(ع)":{"name":"امام سجاد(ع)","id":973,"lat":35.8090689,"long":51.52381091},"امامعلی":{"name":"امام علی","id":1991,"lat":35.70084897,"long":51.4574201},"امانیه":{"name":"امانیه","id":977,"lat":35.78354609,"long":51.41867999},"امیرآباد":{"name":"امیرآباد","id":979,"lat":35.74196431,"long":51.39108164},"امیربهادر":{"name":"امیر بهادر","id":978,"lat":35.6713211,"long":51.40362377},"امیرکبیر":{"name":"امیرکبیر","id":1821,"lat":35.69674366,"long":51.39076347},"امیریه":{"name":"امیریه","id":980,"lat":35.67854613,"long":51.40121995},"امینحضور":{"name":"امین حضور","id":981,"lat":35.68336691,"long":51.43721998},"اندرزگو":{"name":"اندرزگو","id":1999,"lat":35.80055214,"long":51.45075658},"اندیشه":{"name":"اندیشه","id":982,"lat":35.70786611,"long":51.02217009},"انقلابفلسطین":{"name":"انقلاب - فلسطین","id":983,"lat":35.69687928,"long":51.40207748},"اوقاف":{"name":"اوقاف","id":984,"lat":35.7486907,"long":51.51115898},"اوین":{"name":"اوین","id":985,"lat":35.80242042,"long":51.39342128},"ایران":{"name":"ایران","id":986,"lat":35.68500397,"long":51.43863462},"ایرانشهر":{"name":"ایرانشهر","id":987,"lat":35.70953049,"long":51.42153016},"ایرانمهر":{"name":"ایرانمهر","id":1816,"lat":35.69817383,"long":51.45159055},"ایوانک":{"name":"ایوانک","id":988,"lat":35.75791751,"long":51.35495536},"بابهمایون":{"name":"باب همایون","id":1944,"lat":35.68407896,"long":51.42069493},"بازار":{"name":"بازار","id":1002,"lat":35.67302495,"long":51.42291427},"باغآذری":{"name":"باغ آذری","id":1003,"lat":35.65335596,"long":51.42703444},"باغخزانه":{"name":"باغ خزانه","id":1004,"lat":35.6636515,"long":51.36910475},"باغرضوان":{"name":"باغ رضوان","id":1005,"lat":35.74125197,"long":51.43017548},"باغفردوس":{"name":"باغ فردوس","id":1006,"lat":35.72616634,"long":51.30861526},"باغفیض":{"name":"باغ فیض","id":1007,"lat":35.74584559,"long":51.32243219},"باقرخان":{"name":"باقرخان","id":1903,"lat":35.67804721,"long":51.4423822},"بخارست":{"name":"بخارست","id":1935,"lat":35.73274492,"long":51.41691685},"برادرانمظفر":{"name":"برادران مظفر","id":1860,"lat":35.70175843,"long":51.404152},"برلن":{"name":"برلن","id":1812,"lat":35.69301096,"long":51.42236034},"بریانک":{"name":"بریانک","id":1008,"lat":35.67677321,"long":51.37667296},"بعثت":{"name":"بعثت","id":1987,"lat":35.64527081,"long":51.43796554},"بلوارفردوسشرق":{"name":"بلوار فردوس شرق","id":1009,"lat":35.72477004,"long":51.31139495},"بلوارفردوسغرب":{"name":"بلوار فردوس غرب","id":1010,"lat":35.7257891,"long":51.3082514},"بلوارکشاورز":{"name":"بلوار کشاورز","id":1011,"lat":35.70871572,"long":51.39651217},"بلورسازی":{"name":"بلورسازی","id":1012,"lat":35.65595738,"long":51.4312647},"بنیهاشم":{"name":"بنی هاشم","id":1927,"lat":35.74806427,"long":51.46512575},"بهار":{"name":"بهار","id":1013,"lat":35.71117681,"long":51.4304458},"بهاران":{"name":"بهاران","id":1014,"lat":35.76798175,"long":51.2711978},"بهارستان":{"name":"بهارستان","id":1810,"lat":35.69473659,"long":51.42919058},"بهبودی":{"name":"بهبودی","id":1898,"lat":35.70634466,"long":51.36782342},"بهجت‌آباد":{"name":"بهجت ‌آباد","id":1016,"lat":35.71991296,"long":51.41214411},"بهداشت":{"name":"بهداشت","id":1017,"lat":35.65739165,"long":51.33859637},"بهرامآباد":{"name":"بهرام آباد","id":1795,"lat":35.5719817,"long":51.25887033},"بهشتزهرا":{"name":"بهشت زهرا","id":1018,"lat":35.53060846,"long":51.37634575},"بهشتی":{"name":"بهشتی","id":1951,"lat":35.7311536,"long":51.43269471},"بهمنیار":{"name":"بهمن یار","id":1019,"lat":35.62939361,"long":51.39858714},"بومهن":{"name":"بومهن","id":1020,"lat":35.7321977,"long":51.86843587},"بیستون":{"name":"بیستون","id":1954,"lat":35.72144968,"long":51.4048582},"بیسیم":{"name":"بیسیم","id":1021,"lat":35.65202152,"long":51.44889947},"بیهقی":{"name":"بیهقی","id":1937,"lat":35.7375135,"long":51.4156857},"پاتریس":{"name":"پاتریس","id":1900,"lat":35.72681418,"long":51.37618311},"پاتریسلومومبا":{"name":"پاتریس لومومبا","id":1022,"lat":35.72681418,"long":51.37618311},"پارکساعی":{"name":"پارک ساعی","id":1933,"lat":35.73656476,"long":51.41079806},"پارکلاله":{"name":"پارک لاله","id":1958,"lat":35.71151002,"long":51.39289506},"پارکملت":{"name":"پارک ملت","id":1972,"lat":35.77838207,"long":51.41062473},"پارکوی":{"name":"پارک وی","id":1973,"lat":35.79118555,"long":51.41634633},"پاستور":{"name":"پاستور","id":1939,"lat":35.7429453,"long":51.30383201},"پاسداران":{"name":"پاسداران","id":1024,"lat":35.78162598,"long":51.46815735},"پاسدارگمنام":{"name":"پاسدار گمنام","id":1023,"lat":35.78162598,"long":51.46815735},"پاکدشت":{"name":"پاکدشت","id":1025,"lat":35.46741444,"long":51.68542722},"پامنار":{"name":"پامنار","id":1026,"lat":35.68138696,"long":51.42411582},"پردیس":{"name":"پردیس","id":1027,"lat":35.74893199,"long":51.79830829},"پرستار":{"name":"پرستار","id":1028,"lat":35.68199248,"long":51.48335651},"پرند":{"name":"پرند","id":1029,"lat":35.48439062,"long":50.93669346},"پرندک":{"name":"پرندک","id":1801,"lat":35.50722726,"long":51.01591825},"پرواز":{"name":"پرواز","id":1030,"lat":35.72561051,"long":51.30666726},"پلچوبی":{"name":"پل چوبی","id":1031,"lat":35.70182949,"long":51.43839011},"پلطبیعت":{"name":"پل طبیعت","id":1976,"lat":35.75448773,"long":51.42048523},"پلیس":{"name":"پلیس","id":1032,"lat":35.72200441,"long":51.44729634},"پونک":{"name":"پونک","id":1033,"lat":35.76099003,"long":51.3387679},"پیچشمیران":{"name":"پیچ شمیران","id":1829,"lat":35.80925589,"long":51.43137646},"پیروزی":{"name":"پیروزی","id":1034,"lat":35.69245837,"long":51.48347848},"تئاترشهر":{"name":"تئاتر شهر","id":1876,"lat":35.70033487,"long":51.40553391},"تاکسیرانی":{"name":"تاکسیرانی","id":1035,"lat":35.70033487,"long":51.38540661},"تجریش":{"name":"تجریش","id":1036,"lat":35.79560888,"long":51.43174398},"ترمینالجنوب":{"name":"ترمینال جنوب","id":1986,"lat":35.64922056,"long":51.41896775},"تسلیحات":{"name":"تسلیحات","id":1037,"lat":35.71901928,"long":51.47450814},"تقیآباد":{"name":"تقی آباد","id":1038,"lat":35.58116648,"long":51.46361227},"تهرانپارسشرقی":{"name":"تهرانپارس شرقی","id":1042,"lat":35.74315029,"long":51.54976116},"تهرانپارسغربی":{"name":"تهرانپارس غربی","id":1043,"lat":35.74072809,"long":51.53207988},"تهرانسر":{"name":"تهرانسر","id":1044,"lat":35.69295912,"long":51.25601689},"تهران‌نو":{"name":"تهران ‌نو","id":1040,"lat":35.71073806,"long":51.4970997},"تهران‌ویلا":{"name":"تهران ‌ویلا","id":1041,"lat":35.72361326,"long":51.36595942},"توانیر":{"name":"توانیر","id":1045,"lat":35.74767407,"long":51.40895059},"توحید":{"name":"توحید","id":1046,"lat":35.70592173,"long":51.37768312},"تولیددارو":{"name":"تولید دارو","id":1047,"lat":35.66384488,"long":51.33748582},"تیموری":{"name":"تیموری","id":1048,"lat":35.71051495,"long":51.35128854},"جابری":{"name":"جابری","id":1049,"lat":35.69502079,"long":51.36677025},"جردن":{"name":"جردن","id":1050,"lat":35.7622158,"long":51.41854413},"جلفا":{"name":"جلفا","id":1051,"lat":35.7489564,"long":51.44404573},"جلیلی":{"name":"جلیلی","id":1052,"lat":35.65522877,"long":51.32197782},"جماران":{"name":"جماران","id":1053,"lat":35.81643057,"long":51.45714591},"جمال‌زاده":{"name":"جمال ‌زاده","id":1054,"lat":35.69867551,"long":51.3880777},"جمالزادهجنوبی":{"name":"جمالزاده جنوبی","id":1055,"lat":35.69850125,"long":51.38903257},"جمالزادهشمالی":{"name":"جمالزاده شمالی","id":1056,"lat":35.69850125,"long":51.38903257},"جمهوری":{"name":"جمهوری","id":1057,"lat":35.69658868,"long":51.38357705},"جنت‌آبادجنوبی":{"name":"جنت ‌آباد جنوبی","id":1058,"lat":35.74759143,"long":51.30220412},"جنت‌آبادشمالی":{"name":"جنت ‌آباد شمالی","id":1059,"lat":35.77271775,"long":51.30800309},"جنت‌آبادمرکزی":{"name":"جنت ‌آباد مرکزی","id":1060,"lat":35.75740257,"long":51.30460734},"جهاد":{"name":"جهاد","id":1061,"lat":35.72755728,"long":51.34820792},"جوادیهتهرانپارس":{"name":"جوادیه تهرانپارس","id":1064,"lat":35.65363822,"long":51.39056708},"جوادیهمنطقه16":{"name":"جوادیه - منطقه 16","id":1062,"lat":35.65363822,"long":51.39056708},"جوادیهمنطقه4":{"name":"جوادیه - منطقه 4","id":1063,"lat":35.65363822,"long":51.39056708},"جوانمردقصاب":{"name":"جوانمرد قصاب","id":1065,"lat":35.61394829,"long":51.42750069},"جویبار":{"name":"جویبار","id":1957,"lat":35.7240499,"long":51.48881412},"جی":{"name":"جی","id":1066,"lat":35.6925321,"long":51.3543199},"جیحون":{"name":"جیحون","id":1067,"lat":35.68969927,"long":51.36403815},"چراغبرق":{"name":"چراغ برق","id":1822,"lat":35.66903085,"long":51.41752137},"چهارارهامیراکرم":{"name":"چهاراره امیراکرم","id":1855,"lat":35.69700158,"long":51.40433593},"چهاردانگه":{"name":"چهاردانگه","id":1788,"lat":35.60536455,"long":51.31207667},"چهاردیواری":{"name":"چهاردیواری","id":1068,"lat":35.77859331,"long":51.33566204},"چهارراهاستانبول":{"name":"چهارراه استانبول","id":1827,"lat":35.69587373,"long":51.41983869},"چهارراهجهانکودک":{"name":"چهارراه جهان کودک","id":1871,"lat":35.75805923,"long":51.41429377},"چهارراهسئول":{"name":"چهارراه سئول","id":1995,"lat":35.77625216,"long":51.3956898},"چهارراهگلوبندک":{"name":"چهارراه گلوبندک","id":1909,"lat":35.67824232,"long":51.41696347},"چهارراهلشگر":{"name":"چهارراه لشگر","id":1908,"lat":35.68250499,"long":51.39361863},"چهارراهولیعصر":{"name":"چهارراه ولیعصر","id":1834,"lat":35.70123278,"long":51.40536863},"چهارصددستگاه":{"name":"چهارصد دستگاه","id":1069,"lat":35.68263187,"long":51.45912096},"چیتگر":{"name":"چیتگر","id":1070,"lat":35.71530549,"long":51.18275429},"چیتگرجنوبی":{"name":"چیتگر جنوبی","id":1071,"lat":35.71530549,"long":51.18275429},"چیتگرشمالی":{"name":"چیتگر شمالی","id":1072,"lat":35.71530549,"long":51.18275429},"چیذر":{"name":"چیذر","id":1073,"lat":35.79754005,"long":51.45592144},"حافظیه":{"name":"حافظیه","id":1074,"lat":35.76317741,"long":51.39762725},"حبیبالهی":{"name":"حبیب الهی","id":1904,"lat":35.78907015,"long":51.4465746},"حجاب":{"name":"حجاب","id":1956,"lat":35.71253305,"long":51.39563455},"حسنآباد":{"name":"حسن آباد","id":1839,"lat":35.68543867,"long":51.40850986},"حسن‌آباد":{"name":"حسن ‌آباد","id":1075,"lat":35.68543867,"long":51.40850986},"حسن‌آبادباقرفر":{"name":"حسن ‌آباد باقرفر","id":1076,"lat":35.37421194,"long":51.23894674},"حسین‌آباد":{"name":"حسین ‌آباد","id":1077,"lat":35.768943,"long":51.47944429},"حشمتیه":{"name":"حشمتیه","id":1078,"lat":35.7215389,"long":51.45831994},"حصاربوعلی":{"name":"حصار بوعلی","id":1079,"lat":35.80565152,"long":51.46667183},"حصارک":{"name":"حصارک","id":1080,"lat":35.78182206,"long":51.30868427},"حقانی":{"name":"حقانی","id":1977,"lat":35.75835269,"long":51.42176867},"حقوقی":{"name":"حقوقی","id":1982,"lat":35.70296082,"long":51.43579122},"حکمت":{"name":"حکمت","id":1081,"lat":35.80134207,"long":51.44383368},"حکیمیه":{"name":"حکیمیه","id":1082,"lat":35.73861273,"long":51.58272695},"حمزه‌آباد":{"name":"حمزه‌ آباد","id":1083,"lat":35.71219144,"long":51.37371821},"خاقانی":{"name":"خاقانی","id":1084,"lat":35.69036574,"long":51.39487974},"خاکسفید":{"name":"خاک سفید","id":1085,"lat":35.74330722,"long":51.56321523},"خانی‌آباد":{"name":"خانی ‌آباد","id":1086,"lat":35.66298292,"long":51.41034178},"خانی‌آبادنو":{"name":"خانی ‌آباد نو","id":1087,"lat":35.66298292,"long":51.41034178},"خاوران":{"name":"خاوران","id":1088,"lat":35.66548997,"long":51.45168899},"خراسان":{"name":"خراسان","id":1784,"lat":35.66579569,"long":51.44541568},"خرمشهرنواب":{"name":"خرمشهر - نواب","id":1089,"lat":35.67727409,"long":51.38282598},"خزانهبخارایی":{"name":"خزانه بخارایی","id":1090,"lat":35.63988526,"long":51.42524627},"خلیجفارس":{"name":"خلیج فارس","id":1091,"lat":35.671702,"long":51.25850925},"خواجهعبداللهانصاری":{"name":"خواجه عبدالله انصاری","id":1924,"lat":35.74459528,"long":51.45602451},"خواجهنصیرطوسی":{"name":"خواجه نصیر طوسی","id":1092,"lat":35.70718838,"long":51.43677082},"خواجهنظامالملک":{"name":"خواجه نظام الملک","id":1093,"lat":35.71836795,"long":51.45092303},"خیاباناکباتان":{"name":"خیابان اکباتان","id":1854,"lat":35.68800593,"long":51.42481963},"خیابانایتالیا":{"name":"خیابان ایتالیا","id":1861,"lat":35.70778198,"long":51.40030453},"خیابانایران":{"name":"خیابان ایران","id":1895,"lat":35.68691845,"long":51.43894051},"خیابانایرانمهر":{"name":"خیابان ایرانمهر","id":1896,"lat":35.68691845,"long":51.43894051},"خیابانخارک":{"name":"خیابان خارک","id":1836,"lat":35.69937366,"long":51.40999944},"خیابانخوش":{"name":"خیابان خوش","id":1892,"lat":35.695561,"long":51.37276968},"خیابانرازی":{"name":"خیابان رازی","id":1916,"lat":35.69864756,"long":51.40726101},"خیابانفاطمی":{"name":"خیابان فاطمی","id":1875,"lat":35.71521678,"long":51.39167348},"خیابانفردوسی":{"name":"خیابان فردوسی","id":1814,"lat":35.6975957,"long":51.41962338},"خیابانکاخ":{"name":"خیابان کاخ","id":1879,"lat":32.6326535,"long":51.6754566},"خیابانملت":{"name":"خیابان ملت","id":1825,"lat":35.68779442,"long":51.42650938},"خیابانهاشمی":{"name":"خیابان هاشمی","id":1891,"lat":35.64709766,"long":51.47038718},"خیام":{"name":"خیام","id":1820,"lat":35.66217688,"long":51.41485845},"دارآباد":{"name":"دارآباد","id":1094,"lat":35.81821745,"long":51.49100975},"دامپزشکی":{"name":"دامپزشکی","id":1888,"lat":35.60735211,"long":51.43774851},"دانشگاهتهران":{"name":"دانشگاه تهران","id":1095,"lat":35.70243699,"long":51.39566632},"دانشگاهشریف":{"name":"دانشگاه شریف","id":1096,"lat":35.7034743,"long":51.35156318},"دانشگاهعلموصنعت":{"name":"دانشگاه علم و صنعت","id":1097,"lat":35.7424914,"long":51.50239617},"دبستان":{"name":"دبستان","id":1098,"lat":35.73962406,"long":51.45452137},"دربدوم":{"name":"درب دوم","id":1099,"lat":35.78171765,"long":51.44176485},"دربند":{"name":"دربند","id":1100,"lat":35.82410871,"long":51.42561662},"دردشت":{"name":"دردشت","id":1101,"lat":35.72719228,"long":51.50262101},"درکه":{"name":"درکه","id":1102,"lat":35.80689247,"long":51.38185792},"دروازهدولت":{"name":"دروازه دولت","id":1828,"lat":35.70210541,"long":51.42600602},"دروازهشمیران":{"name":"دروازه شمیران","id":1830,"lat":35.69704577,"long":51.44227981},"دروس":{"name":"دروس","id":1104,"lat":35.77392267,"long":51.45576058},"دریا":{"name":"دریا","id":1105,"lat":35.77475423,"long":51.37060067},"دریاچهشهدایخلیجفارس":{"name":"دریاچه شهدای خلیج فارس","id":1106,"lat":35.74589666,"long":51.21446362},"دریان‌نو":{"name":"دریان‌ نو","id":1107,"lat":35.71277559,"long":51.36395901},"دزاشیب":{"name":"دزاشیب","id":1108,"lat":35.80966346,"long":51.45356642},"دکترهوشیار":{"name":"دکتر هوشیار","id":1109,"lat":35.69790889,"long":51.35173375},"دلگشا":{"name":"دلگشا","id":1110,"lat":35.70944557,"long":51.31819851},"دهقان":{"name":"دهقان","id":1112,"lat":35.69590652,"long":51.47597372},"دهکدهالمپیک":{"name":"دهکده المپیک","id":1113,"lat":35.76106115,"long":51.26351055},"ده‌ونک":{"name":"ده ‌ونک","id":1111,"lat":35.76924799,"long":51.39203776},"دولاب":{"name":"دولاب","id":1114,"lat":35.66677966,"long":51.46102841},"دولت‌آباد":{"name":"دولت ‌آباد","id":1115,"lat":35.61777765,"long":51.45115777},"دولتخواه":{"name":"دولتخواه","id":1116,"lat":35.62027586,"long":51.34301017},"دیلمان":{"name":"دیلمان","id":1117,"lat":35.60070903,"long":51.4363737},"رازی":{"name":"رازی","id":1118,"lat":35.66745927,"long":51.39438626},"راهآهن":{"name":"راه آهن","id":1913,"lat":35.65043127,"long":51.40917732},"رباطکریم":{"name":"رباط کریم","id":1119,"lat":35.47844967,"long":51.08423642},"رسالت":{"name":"رسالت","id":1980,"lat":35.73709692,"long":51.4865952},"رودکی":{"name":"رودکی","id":1885,"lat":35.7008696,"long":51.37501881},